timestamp,timestamp_sample,xyz[0],xyz[1],xyz[2],xyz_derivative[0],xyz_derivative[1],xyz_derivative[2]
264000,264000,0.0,0.0,0.0,0.0,0.0,0.0
268000,268000,0.0,0.0,0.0,0.0,0.0,0.0
276000,276000,0.0,0.0,0.0,0.0,0.0,0.0
284000,284000,0.0,0.0,0.0,0.0,0.0,0.0
296000,296000,0.0,0.0,0.0,0.0,0.0,0.0
304000,304000,0.0,0.0,0.0,0.0,0.0,0.0
316000,316000,0.0,0.0,0.0,0.0,0.0,0.0
324000,324000,0.0,0.0,0.0,0.0,0.0,0.0
336000,336000,-1.3325791e-15,-1.7251442e-15,-1.9575276e-16,-6.571866e-14,-8.382236e-14,-9.533933e-15
344000,344000,-3.8847108e-17,-5.353566e-17,-4.3084364e-18,8.1585875e-14,1.0561594e-13,1.21361915e-14
356000,356000,-1.4321346e-18,2.3956764e-17,2.2631715e-18,1.2166437e-14,1.5621099e-14,1.6333464e-15
364000,364000,-2.5314213e-17,-1.6164682e-17,-5.173828e-19,2.3306251e-15,2.0771027e-15,3.716516e-16
376000,376000,-7.400484e-18,2.7927934e-18,2.087458e-19,6.77753e-16,2.1758155e-15,2.7491098e-16
384000,384000,2.2885978e-18,6.7862518e-18,3.654037e-18,1.5128679e-15,9.242872e-16,2.8681594e-16
396000,396000,1.7112477e-18,2.0354514e-17,1.007944e-18,6.490975e-17,1.627295e-15,5.7233804e-17
404000,404000,6.838468e-17,4.349878e-17,2.0140072e-18,5.7830963e-15,2.4689602e-15,9.8059264e-17
416000,416000,3.595533e-17,4.104165e-17,4.719545e-18,-1.0689955e-15,-4.10615e-16,1.4275776e-16
424000,424000,-3.004171e-17,3.0585817e-17,3.2165272e-18,-6.2714218e-15,-8.198983e-16,-5.268961e-17
436000,436000,-1.4795263e-17,1.682436e-17,1.8870217e-18,4.3901252e-16,-1.1367322e-15,-1.4208329e-16
444000,444000,-4.2392384e-17,2.8872802e-17,2.4249259e-18,-2.2018359e-15,7.38191e-16,-1.872987e-17
456000,456000,-3.002835e-17,1.982015e-17,2.1744268e-18,1.090884e-15,-9.715562e-16,3.966127e-17
464000,464000,-1.35271625e-17,-1.3559539e-17,-3.9951095e-20,1.8006019e-15,-3.0604639e-15,-2.3279504e-16
476000,476000,9.314489e-18,-2.0069845e-17,-2.6709478e-18,9.817474e-16,-1.6568626e-15,-1.6227431e-16
484000,484000,-1.6101898e-17,5.2558813e-19,-3.1218814e-18,-1.7371583e-15,1.7024364e-15,-1.06862696e-16
496000,496000,6.167476e-18,1.4142315e-17,4.8296424e-19,1.6418122e-15,8.8288187e-16,3.7369495e-16
504000,504000,-2.9317465e-17,-8.959337e-18,1.7231321e-18,-2.3961067e-15,-1.6001354e-15,1.9517229e-16
516000,516000,2.5494046e-17,2.7095413e-17,1.9911451e-18,4.0355098e-15,2.112148e-15,-2.1165132e-18
524000,524000,-2.6473452e-18,2.3405818e-17,2.6020476e-18,-1.2251442e-15,-5.4976885e-17,2.8971753e-17
536000,536000,2.8412456e-17,2.0795288e-18,2.9259043e-18,1.1735886e-15,3.2450464e-17,1.8329936e-16
544000,544000,-4.5023428e-17,1.8386859e-17,2.8779702e-18,-5.795973e-15,1.2483885e-15,1.1160276e-17
556000,556000,-4.870392e-17,2.9284675e-17,5.2311973e-18,-9.5881165e-17,8.910755e-16,1.7461833e-16
564000,564000,-1.6469062e-17,2.3329067e-17,3.6609468e-19,2.6010967e-15,-3.0325288e-16,-4.05014e-16
576000,576000,-3.0513882e-17,2.6584908e-17,-1.3117943e-18,-1.2391397e-15,2.8506584e-16,5.1613853e-17
584000,584000,1.6000155e-19,-1.5029792e-17,-3.2247874e-19,2.611905e-15,-3.7357444e-15,2.2985789e-17
596000,596000,1.0897773e-17,1.0398119e-17,2.49337e-18,2.3796798e-16,2.2952624e-15,4.1695485e-16
604000,604000,3.158067e-17,2.9133844e-17,4.7620234e-18,2.306537e-15,2.4048813e-15,2.7783242e-16
616000,616000,-1.7035044e-17,-1.4446061e-17,6.2869416e-18,-4.043837e-15,-2.874978e-15,1.5100713e-16
620000,620000,-3.2420957e-17,-1.6162267e-17,6.2896332e-18,-3.9589985e-15,-1.8235506e-15,8.638313e-17
636000,636000,-8.025416e-17,3.1532846e-17,4.4642313e-18,-3.5779044e-15,2.6593768e-15,7.831501e-18
644000,644000,-2.7593753e-17,1.32231165e-17,4.3932873e-18,3.3477923e-15,-8.672115e-16,2.2174725e-17
656000,656000,-2.3559308e-17,7.22064e-18,1.8115284e-18,3.7560511e-16,-9.958208e-16,-3.6787499e-16
660000,660000,-1.878496e-17,-1.11520995e-17,-9.40735e-19,7.2723e-16,-2.5422157e-15,-5.055151e-16
676000,676000,-1.1706674e-19,-1.4051838e-17,-1.3508909e-18,-2.1887732e-15,8.946884e-16,1.061265e-17
684000,684000,-4.435735e-17,1.2394535e-18,3.6844535e-18,-3.62978e-15,1.2132848e-15,4.3156162e-16
696000,696000,-2.3451757e-17,-2.4328068e-18,-1.1561336e-18,9.98337e-16,-6.201883e-16,-2.4727245e-16
704000,704000,4.5183097e-17,8.354225e-18,3.923196e-18,5.6182683e-15,9.579773e-16,3.3487733e-16
716000,716000,-3.520867e-17,2.070779e-17,5.9951623e-18,-4.3885256e-15,2.1559072e-15,2.8134202e-16
720000,720000,-1.9059535e-17,2.4967825e-17,4.29006e-18,-7.6653263e-16,1.6869639e-15,-2.2840717e-17
736000,736000,3.2170834e-17,1.6631121e-17,5.980565e-19,1.3092781e-15,1.4708605e-15,2.3126776e-16
744000,744000,-2.2668579e-17,-2.2676084e-19,2.159213e-18,-4.502013e-15,-1.4584117e-15,1.3696435e-16
756000,756000,-4.583188e-17,-1.20234896e-17,-8.434761e-19,-1.6337803e-15,-6.145628e-16,-4.9785338e-17
764000,764000,-3.5656444e-17,-1.5144906e-17,4.423918e-19,3.372071e-16,-4.984322e-16,6.861091e-17
772000,772000,-4.6449914e-20,5.1857185e-18,1.9094416e-18,3.0913706e-15,1.5309443e-15,1.4812854e-16
784000,784000,-1.421265e-17,-4.1967856e-18,-1.4493049e-18,-1.2534716e-16,5.0631013e-16,-5.708342e-17
796000,796000,-3.4790694e-17,1.4462606e-17,4.927934e-18,-5.697508e-16,-1.1965612e-17,5.4348387e-17
804000,804000,4.9489243e-17,1.387129e-17,2.1048388e-18,6.4359816e-15,1.513713e-16,-1.7521047e-16
816000,816000,-1.7064602e-17,3.4315377e-18,6.3835544e-19,-3.3113036e-15,-1.1964491e-15,-1.466231e-16
824000,824000,5.300989e-18,1.2360868e-17,2.5623787e-18,1.1698539e-15,7.9517875e-16,1.4903295e-16
836000,836000,-7.247372e-18,1.2140864e-17,8.821196e-19,-1.6533916e-15,-8.229736e-16,-9.382221e-17
844000,844000,-1.29585635e-17,-2.8661878e-17,2.4036268e-18,-8.706296e-16,-3.5225386e-15,1.0649837e-16
856000,856000,-1.3641173e-17,-4.395235e-18,4.7428253e-18,1.9523882e-16,7.717942e-16,5.3396335e-17
864000,864000,-1.5993847e-17,-3.0233465e-17,-2.250445e-18,-2.3601827e-16,-1.7690483e-15,-5.138656e-16
876000,876000,-7.292402e-18,3.6680653e-17,6.0943566e-19,1.052527e-15,5.027634e-15,4.5335106e-17
884000,884000,-1.25575314e-17,2.0720027e-17,1.6918979e-19,-1.4779984e-17,-3.0070728e-16,4.690685e-17
896000,896000,6.443341e-18,3.6468305e-18,7.3902376e-18,-1.2975444e-16,-3.4318757e-16,3.1033953e-16
904000,904000,-1.6889716e-17,1.5429322e-18,4.2289853e-18,-1.6855713e-15,-2.8514115e-16,-1.4728282e-16
916000,916000,-4.0822544e-17,-5.294578e-18,4.0173577e-18,-1.9651444e-15,-1.2471192e-15,-3.9236177e-17
924000,924000,-3.0029694e-17,-1.20366e-17,-1.3912184e-18,4.606436e-16,-7.2421095e-16,-4.517726e-16
936000,936000,4.7028187e-18,-4.8928785e-17,2.6366851e-18,3.306693e-15,-2.744259e-15,1.9494393e-16
940000,940000,2.6052998e-17,-1.9819247e-17,4.119897e-18,4.179693e-15,1.5637331e-15,2.7054029e-16
952000,952000,3.525614e-17,2.994457e-17,1.9108914e-18,5.56745e-16,2.2264877e-15,-4.2890532e-17
960000,960000,-1.3629248e-17,1.8974013e-17,2.0613998e-18,-3.7731256e-15,-9.383108e-17,-5.077694e-17
976000,976000,-3.7905e-18,-8.566686e-18,1.6579522e-18,-7.5985727e-16,-1.872397e-15,1.0423104e-16
980000,980000,-2.1672648e-17,-2.7102933e-18,2.067028e-18,-2.354963e-15,-4.3814156e-16,1.0338759e-16
996000,996000,2.3299953e-18,3.130903e-18,9.786617e-20,1.1992636e-15,1.0670658e-15,2.3124373e-16
1004000,1004000,1.3730337e-07,-2.7733545e-13,2.9736874e-18,2.4052453e-17,-7.365468e-16,2.687484e-16
1012000,1012000,1.3730337e-07,-2.77318e-13,-1.2216451e-18,-1.3793093e-15,1.287272e-15,-2.8517199e-16
1024000,1024000,1.3730337e-07,-2.7731184e-13,1.1803109e-18,-3.003743e-15,1.685945e-16,1.7176989e-16
1036000,1036000,1.3730337e-07,-2.7729067e-13,-1.05052285e-20,1.3123642e-15,2.0106688e-15,-4.4317565e-17
1044000,1044000,1.3730337e-07,-2.7732946e-13,2.0992676e-18,3.8044284e-16,-2.8905416e-15,1.4796913e-16
1056000,1056000,1.3730337e-07,-2.7731913e-13,3.6304783e-18,-2.237416e-15,6.4389454e-16,2.2492738e-16
1064000,1064000,1.3730337e-07,-2.7732905e-13,4.884187e-18,3.6332157e-16,-1.0068079e-15,2.2547417e-17
1076000,1076000,1.3730337e-07,-2.7729715e-13,-2.572964e-19,5.6389127e-16,2.4621058e-15,-1.6270995e-16
1084000,1084000,1.3730337e-07,-2.773588e-13,-4.6761277e-18,3.9300296e-15,-4.4342187e-15,-4.106213e-16
1096000,1096000,1.3730337e-07,-2.7730972e-13,5.560892e-18,-1.4569888e-15,1.998301e-15,7.689977e-16
1104000,1104000,1.3730337e-07,-2.7735843e-13,8.077562e-19,4.898168e-15,-3.1318467e-15,-2.491111e-16
1116000,1116000,1.3730337e-07,-2.773341e-13,8.6475503e-19,-1.4926258e-15,1.5988414e-16,2.515071e-16
1124000,1124000,1.3730337e-07,-2.7734274e-13,6.969016e-18,7.1187444e-16,-6.4527425e-16,4.913704e-16
1136000,1136000,1.3730337e-07,-2.7732718e-13,-2.0385688e-18,-2.1996925e-15,1.8011823e-15,-5.4184195e-16
1144000,1144000,1.3730337e-07,-2.7730032e-13,-3.6661774e-18,-4.633848e-15,2.644779e-15,-2.4034338e-16
1156000,1156000,1.3730337e-07,-2.773273e-13,2.1608524e-18,1.29501e-15,-1.1073632e-15,1.6692188e-16
1164000,1164000,1.3730337e-07,-2.7730422e-13,8.178424e-19,2.7294197e-15,1.6015014e-15,-2.5167452e-17
1176000,1176000,1.3730337e-07,-2.7731292e-13,1.5025679e-18,-2.5173188e-15,2.925138e-17,1.1367982e-16
1184000,1184000,1.3730337e-07,-2.7730823e-13,-1.5052721e-18,-1.4799226e-15,2.9946122e-16,-1.9288739e-16
1196000,1196000,1.3730337e-07,-2.773182e-13,4.053316e-18,1.4078837e-15,-7.980559e-16,3.7160164e-16
1204000,1204000,1.3730337e-07,-2.7732016e-13,-8.839566e-19,-1.9436757e-15,-5.365015e-16,-3.118208e-16
1216000,1216000,1.3730337e-07,-2.77321e-13,3.0469241e-18,6.0415853e-16,7.380773e-16,3.033289e-16
1224000,1224000,1.3730337e-07,-2.773324e-13,6.553216e-18,1.4745243e-15,-1.1679203e-15,3.4301258e-16
1236000,1236000,1.3730337e-07,-2.773192e-13,-1.2256149e-18,5.1956395e-15,8.748149e-16,-4.6888403e-16
1244000,1244000,1.3730337e-07,-2.7732184e-13,2.4936679e-18,5.692057e-16,2.6210654e-16,1.9615666e-16
1256000,1256000,1.3730337e-07,-2.7732734e-13,1.3009826e-18,3.6711225e-15,-1.298788e-15,-1.7416649e-16
1264000,1264000,1.3730337e-07,-2.7734154e-13,-6.02313e-18,-1.5755304e-15,-1.4393577e-15,-6.3006085e-16
1276000,1276000,1.3730337e-07,-2.7734217e-13,2.0043353e-19,-1.5397101e-15,2.4296007e-16,2.7501063e-16
1284000,1284000,1.3730337e-07,-2.7732862e-13,-3.5815762e-18,-1.5571046e-15,1.2865694e-15,-1.8852152e-16
1296000,1296000,1.3730337e-07,-2.7733734e-13,7.3554186e-20,-1.6239378e-15,-1.7399248e-16,1.6620768e-16
1304000,1304000,1.3730337e-07,-2.7731097e-13,4.7924764e-20,-6.1699934e-16,1.6934622e-15,3.0291926e-17
1316000,1316000,1.3730337e-07,-2.7734068e-13,3.614994e-18,-2.9660275e-16,-5.426078e-16,2.2988932e-16
1324000,1324000,1.3730337e-07,-2.773117e-13,5.1884664e-18,1.2527277e-15,2.1655206e-15,2.372742e-16
1336000,1336000,1.3730337e-07,-2.7730409e-13,-1.0873025e-19,4.1004755e-15,-2.4265228e-16,-4.911049e-16
1344000,1344000,1.3730337e-07,-2.7731097e-13,7.858299e-19,-6.843077e-15,-2.0171454e-16,-8.1076465e-17
1356000,1356000,1.3730337e-07,-2.7732097e-13,1.3153411e-19,-1.5827577e-15,-1.4787581e-15,-4.5550256e-17
1364000,1364000,1.3730337e-07,-2.7731344e-13,2.1743834e-18,5.8940737e-15,4.968363e-16,1.8821235e-16
1376000,1376000,1.3730337e-07,-2.7730368e-13,7.577339e-18,1.4719464e-15,-2.5079163e-16,4.5811915e-16
1384000,1384000,1.3730337e-07,-2.7734358e-13,4.393379e-18,-6.2091136e-16,-3.4240369e-15,-2.384016e-16
1396000,1396000,1.3730337e-07,-2.7730541e-13,-2.0917599e-19,-3.3123912e-15,2.3432887e-15,-2.0967832e-16
1404000,1404000,1.3730337e-07,-2.7729262e-13,4.5951595e-18,-2.180834e-15,1.6314155e-15,3.5751543e-16
1416000,1416000,3.4315044e-06,-3.8055878e-11,-5.515864e-16,3.403765e-15,-2.7438724e-15,-1.198378e-16
1424000,1424000,3.4315044e-06,-3.8055885e-11,-5.5240964e-16,3.2745493e-15,-1.5951265e-15,-1.2514603e-16
1436000,1436000,3.4315044e-06,-3.8055833e-11,-5.515452e-16,6.402555e-16,3.163742e-15,1.8896736e-16
1444000,1444000,3.4315044e-06,-3.8055857e-11,-5.5481876e-16,2.2597187e-15,-1.1970973e-15,-2.6991978e-16
1456000,1456000,3.4315044e-06,-3.8055854e-11,-5.5558236e-16,-3.3390735e-15,8.609032e-16,1.08749915e-17
1464000,1464000,3.4315044e-06,-3.8055836e-11,-5.540475e-16,6.4998598e-15,9.826315e-16,7.0575665e-17
1476000,1476000,3.4315044e-06,-3.8055867e-11,-5.5000544e-16,-1.5402722e-15,-2.0179836e-15,4.536738e-16
1484000,1484000,3.4315044e-06,-3.8055892e-11,-5.490334e-16,-5.138246e-16,-2.6062575e-15,1.5162082e-16
1496000,1496000,3.4315044e-06,-3.805586e-11,-5.5612483e-16,-1.6045474e-15,2.2821876e-15,-4.1471167e-16
1504000,1504000,3.4315044e-06,-3.8055847e-11,-5.571313e-16,-1.3236864e-16,1.8955653e-15,-1.8726383e-16
1516000,1516000,3.4315044e-06,-3.8055822e-11,-5.5597856e-16,1.7844665e-15,1.7730452e-15,5.885228e-17
1524000,1524000,3.4315044e-06,-3.8055878e-11,-5.532833e-16,2.1817053e-15,-4.290242e-15,2.1326742e-16
1536000,1536000,3.4315044e-06,-3.8055878e-11,-5.553396e-16,-1.4174042e-15,-3.6798065e-16,-1.1886466e-16
1544000,1544000,3.4315044e-06,-3.8055867e-11,-5.5680563e-16,4.447126e-16,1.0462174e-15,-1.5491509e-16
1556000,1556000,3.4315044e-06,-3.805586e-11,-5.538223e-16,-2.6778318e-15,-1.6284547e-16,1.5314013e-16
1564000,1564000,3.4315044e-06,-3.8055885e-11,-5.520421e-16,-5.865825e-16,-1.8416305e-15,2.1305676e-16
1576000,1576000,3.4315044e-06,-3.8055843e-11,-5.502313e-16,5.0879266e-15,2.868933e-15,1.6403805e-16
1584000,1584000,6.1428304e-06,-9.767579e-11,-1.7394718e-15,-2.267218e-15,-2.5111304e-15,-1.826952e-16
1596000,1596000,6.1428304e-06,-9.767582e-11,-1.7341734e-15,4.3000695e-15,-1.7782347e-15,4.731099e-16
1604000,1604000,6.1428304e-06,-9.767577e-11,-1.7348223e-15,-5.245643e-15,3.948538e-15,6.51702e-17
1616000,1616000,6.1428304e-06,-9.767578e-11,-1.7388668e-15,-1.7417697e-15,-8.035433e-16,-2.9326327e-16
1624000,1624000,6.1428304e-06,-9.767578e-11,-1.7417794e-15,-7.7729757e-16,-1.8575295e-16,-3.518954e-16
1636000,1636000,6.1428304e-06,-9.7675784e-11,-1.739917e-15,1.1587976e-15,-7.868796e-16,3.3709033e-17
1644000,1644000,6.1428304e-06,-9.7675784e-11,-1.7399648e-15,3.2434518e-15,-6.4539744e-16,5.91698e-17
1656000,1656000,7.4174113e-06,-1.336454e-10,-2.5257576e-15,1.5563852e-15,-1.2705225e-15,-3.871224e-16
1664000,1664000,7.4174113e-06,-1.336454e-10,-2.522715e-15,-1.1434314e-15,3.6744797e-16,2.6308184e-16
1676000,1676000,7.4174113e-06,-1.3364539e-10,-2.519878e-15,-5.8925626e-15,-3.201377e-17,-2.7931706e-17
1684000,1684000,7.4174113e-06,-1.3364536e-10,-2.5207343e-15,6.963582e-15,2.0172056e-15,-8.593471e-17
1696000,1696000,7.4174113e-06,-1.3364536e-10,-2.519365e-15,-4.396531e-15,-3.8435634e-16,7.112849e-17
1704000,1704000,7.4174113e-06,-1.3364536e-10,-2.5178141e-15,-2.6231638e-15,5.888395e-16,1.8446235e-16
1716000,1716000,7.4174113e-06,-1.3364537e-10,-2.526349e-15,-9.378768e-16,-1.6353038e-15,-4.463152e-16
1724000,1724000,7.4174113e-06,-1.336454e-10,-2.5241866e-15,3.291742e-15,-2.0354155e-15,1.7734625e-17
1736000,1736000,7.4174113e-06,-1.3364537e-10,-2.5212933e-15,-5.253366e-16,9.255366e-16,4.5948245e-17
1744000,1744000,7.4174113e-06,-1.3364536e-10,-2.5216982e-15,7.081075e-16,1.6275407e-15,6.95539e-17
1756000,1756000,7.4174113e-06,-1.3364536e-10,-2.5198946e-15,1.1621546e-16,1.0271575e-15,1.1307383e-16
1764000,1764000,7.4174113e-06,-1.3364537e-10,-2.5208613e-15,-2.4537994e-15,-9.359456e-16,-8.882894e-17
1776000,1776000,7.4174113e-06,-1.3364537e-10,-2.5149562e-15,2.387796e-15,-2.9601589e-16,4.1155152e-16
1784000,1784000,9.802269e-06,-2.15672e-10,-4.405067e-15,-4.5741643e-15,-1.7470352e-15,-7.164286e-16
1796000,1796000,9.802269e-06,-2.15672e-10,-4.3994082e-15,1.2444957e-15,3.5150554e-16,3.133791e-16
1804000,1804000,9.802269e-06,-2.1567197e-10,-4.3978323e-15,1.646121e-15,2.456345e-15,1.9843007e-16
1816000,1816000,9.802269e-06,-2.1567195e-10,-4.402576e-15,2.2645612e-15,8.6877364e-16,-2.619114e-16
1824000,1824000,9.802269e-06,-2.1567197e-10,-4.398532e-15,-2.2998022e-15,-1.938652e-16,2.3567135e-16
1836000,1836000,9.802269e-06,-2.1567197e-10,-4.3992066e-15,2.5339744e-15,3.563493e-16,6.598017e-17
1844000,1844000,9.802269e-06,-2.15672e-10,-4.4007033e-15,-2.2238003e-15,-2.5493286e-15,-1.5709943e-16
1856000,1856000,9.802269e-06,-2.1567197e-10,-4.400058e-15,-2.8391121e-15,9.290664e-16,1.5509106e-16
1864000,1864000,9.802269e-06,-2.1567198e-10,-4.4011692e-15,3.098686e-15,-6.869739e-17,-5.9834606e-17
1876000,1876000,9.802269e-06,-2.1567201e-10,-4.4040224e-15,-4.123297e-16,-1.6565898e-15,-1.6622626e-17
1884000,1884000,9.802269e-06,-2.15672e-10,-4.3988763e-15,-9.468979e-16,-3.0127908e-16,3.633658e-16
1896000,1896000,9.802269e-06,-2.1567198e-10,-4.4017206e-15,6.3863447e-16,2.1180004e-15,-1.04772324e-16
1904000,1904000,9.802269e-06,-2.1567195e-10,-4.404491e-15,-1.1153771e-15,3.4022446e-15,-2.6169776e-16
1916000,1916000,9.802269e-06,-2.1567197e-10,-4.4003006e-15,2.4287293e-17,-1.0421053e-15,2.643449e-16
1924000,1924000,9.802269e-06,-2.1567201e-10,-4.4007813e-15,-1.0837872e-15,-4.053792e-15,7.802508e-17
1936000,1936000,9.802269e-06,-2.1567197e-10,-4.405098e-15,-4.8096805e-15,3.153379e-15,-3.1508847e-16
1944000,1944000,9.802269e-06,-2.1567197e-10,-4.4035727e-15,4.09933e-15,6.8561917e-16,7.014592e-17
1956000,1956000,9.802269e-06,-2.15672e-10,-4.4007173e-15,1.6670197e-15,3.282494e-16,1.2327035e-17
1964000,1964000,9.802269e-06,-2.1567195e-10,-4.40099e-15,-5.358726e-15,2.4229898e-15,4.2485773e-17
1976000,1976000,9.802269e-06,-2.1567197e-10,-4.398703e-15,2.324303e-16,7.699129e-16,1.2049525e-16
1984000,1984000,9.802269e-06,-2.1567195e-10,-4.4017236e-15,2.2272613e-15,6.7259943e-16,-2.5859564e-16
1996000,1996000,9.802269e-06,-2.1567201e-10,-4.401561e-15,7.032451e-16,-2.7779079e-15,1.341621e-16
2004000,2004000,9.802269e-06,-2.1567197e-10,-4.3997792e-15,1.5593925e-15,2.8059544e-15,1.237263e-16
2016000,2016000,9.802269e-06,-2.1567197e-10,-4.404732e-15,-1.8327377e-15,4.107639e-16,-3.309806e-16
2024000,2024000,9.802269e-06,-2.1567198e-10,-4.4077676e-15,4.601659e-16,-9.74345e-16,-3.1986034e-16
2036000,2036000,1.4652968e-05,-4.469603e-10,-1.006777e-14,-4.6928175e-15,-9.414545e-16,4.926906e-16
2044000,2044000,1.4652968e-05,-4.469603e-10,-1.0062031e-14,3.9045445e-16,1.0650505e-15,6.001741e-16
2056000,2056000,1.4652968e-05,-4.469603e-10,-1.0069143e-14,1.4728594e-15,4.2082963e-16,-3.3731388e-16
2064000,2064000,1.4652968e-05,-4.4696027e-10,-1.00683655e-14,2.4303059e-15,1.3097542e-15,-9.5148435e-18
2076000,2076000,1.4652968e-05,-4.4696033e-10,-1.0069189e-14,-1.1626735e-15,-5.7881154e-15,-2.300498e-16
2084000,2084000,1.4652968e-05,-4.4696033e-10,-1.00734156e-14,-3.603109e-15,5.916038e-16,-3.8646783e-16
2096000,2096000,1.4652968e-05,-4.4696033e-10,-1.00713446e-14,5.7861744e-15,-2.3294755e-15,-1.3559154e-18
2104000,2104000,1.4652968e-05,-4.4696033e-10,-1.00691355e-14,-1.3907434e-15,-1.6698583e-15,2.6864717e-16
2116000,2116000,1.4652968e-05,-4.469603e-10,-1.0070127e-14,-3.773592e-15,2.909277e-15,-2.5783246e-16
2124000,2124000,1.4652968e-05,-4.4696027e-10,-1.00643676e-14,-1.2866731e-15,2.663224e-15,4.642444e-16
2136000,2136000,1.4652968e-05,-4.469603e-10,-1.0066538e-14,3.1477508e-15,-1.1559172e-15,-1.5884179e-16
2144000,2144000,1.4652968e-05,-4.469603e-10,-1.0063433e-14,-1.9095447e-16,-1.8989037e-15,1.8339624e-16
2156000,2156000,1.4652968e-05,-4.469603e-10,-1.0075027e-14,2.0761337e-15,-1.4053406e-16,-7.5392693e-16
2164000,2164000,1.7116097e-05,-6.037809e-10,-1.39969586e-14,2.7918037e-16,-3.719409e-16,2.432207e-16
2176000,2176000,1.7385533e-05,-6.201224e-10,-1.4446748e-14,-2.1672528e-15,1.509369e-15,2.3819514e-16
2184000,2184000,1.7385533e-05,-6.201224e-10,-1.4446228e-14,-2.3668604e-15,3.5082336e-16,1.053648e-16
2196000,2196000,1.7385533e-05,-6.201224e-10,-1.4441554e-14,2.061259e-15,1.7990226e-15,1.5419184e-16
2204000,2204000,1.7385533e-05,-6.201224e-10,-1.4447655e-14,3.0494986e-15,-2.6889883e-15,-4.2906404e-16
2216000,2216000,1.7385533e-05,-6.201224e-10,-1.4451661e-14,-2.2207658e-15,2.0684422e-15,-3.2815298e-16
2224000,2224000,1.7385533e-05,-6.201224e-10,-1.4446442e-14,-3.8232077e-15,-5.383901e-17,3.221497e-16
2236000,2236000,1.7385533e-05,-6.201224e-10,-1.4450763e-14,2.0888957e-15,-1.7160049e-15,-2.4995527e-16
2244000,2244000,1.7385533e-05,-6.201224e-10,-1.4450765e-14,-3.2694688e-16,-2.794377e-16,-8.2255264e-17
2256000,2256000,1.7385533e-05,-6.201224e-10,-1.4448671e-14,1.4092208e-15,-3.568401e-16,2.3986798e-16
2264000,2264000,1.7385533e-05,-6.2012245e-10,-1.4447514e-14,1.6881028e-15,-6.251715e-16,1.4095174e-16
2276000,2276000,1.7385533e-05,-6.201224e-10,-1.4447297e-14,-1.7509144e-15,-9.276991e-17,6.206988e-17
2284000,2284000,1.9535484e-05,-7.8261564e-10,-1.8711905e-14,-1.9452973e-15,3.7686455e-16,-1.8057443e-16
2296000,2296000,1.9535484e-05,-7.8261564e-10,-1.871251e-14,3.171682e-15,-7.66869e-17,9.958024e-17
2304000,2304000,1.9535484e-05,-7.8261564e-10,-1.8709211e-14,5.019587e-16,1.9874336e-15,1.828158e-16
2316000,2316000,1.9535484e-05,-7.826157e-10,-1.8714378e-14,-2.2474537e-16,-2.3100873e-15,-1.1930214e-16
2324000,2324000,1.9535484e-05,-7.8261564e-10,-1.8709518e-14,-2.2487276e-15,3.3889632e-15,3.5102064e-16
2336000,2336000,1.9535484e-05,-7.826156e-10,-1.8708986e-14,3.7724047e-16,1.8512672e-15,4.8358428e-17
2344000,2344000,1.9535484e-05,-7.8261564e-10,-1.8711935e-14,-2.0164366e-16,-3.1101085e-15,-1.7863515e-16
2356000,2356000,1.9535484e-05,-7.8261564e-10,-1.8703683e-14,3.383434e-15,-4.9392926e-16,3.695904e-16
2364000,2364000,1.9535484e-05,-7.8261564e-10,-1.8707175e-14,-8.478858e-16,-1.7546128e-15,-1.5505204e-16
2376000,2376000,4.1085414e-06,-2.3734442e-10,-3.188232e-14,2.9020115e-15,2.216877e-15,-1.140057e-16
2384000,2384000,4.1085414e-06,-2.3734445e-10,-3.1879508e-14,1.3973248e-16,1.6460391e-16,2.1892778e-16
2396000,2396000,4.1085414e-06,-2.3734445e-10,-3.1877892e-14,-3.1348766e-15,-8.680828e-16,1.05427924e-17
2404000,2404000,4.1085414e-06,-2.3734445e-10,-3.187974e-14,-1.9471843e-15,3.639871e-16,-1.7938817e-16
2416000,2416000,4.1085414e-06,-2.3734448e-10,-3.1875527e-14,-1.1307152e-15,-1.7510167e-15,4.101968e-16
2424000,2424000,4.1085414e-06,-2.3734445e-10,-3.187995e-14,5.3125843e-15,1.2494348e-15,-3.0495833e-16
2436000,2436000,4.1085414e-06,-2.3734448e-10,-3.18869e-14,-5.1292084e-15,-1.0856639e-15,-4.222861e-16
2444000,2444000,4.1085414e-06,-2.373445e-10,-3.188455e-14,-6.249193e-16,-2.7636885e-15,4.781701e-17
2456000,2456000,4.1085414e-06,-2.3734448e-10,-3.188797e-14,5.2753466e-16,4.5308946e-16,-1.0104999e-16
2464000,2464000,4.1085414e-06,-2.3734448e-10,-3.18846e-14,-1.8132214e-15,1.8961413e-15,1.8681133e-16
2476000,2476000,4.1085414e-06,-2.3734448e-10,-3.188775e-14,-1.7571199e-15,7.5677534e-16,-1.8727074e-16
2484000,2484000,4.1085414e-06,-2.3734442e-10,-3.1882127e-14,-1.230766e-15,3.9574015e-15,5.0371954e-16
2496000,2496000,4.1085414e-06,-2.3734445e-10,-3.1877516e-14,-4.793566e-16,-1.1143178e-15,3.8918496e-16
2504000,2504000,4.1085414e-06,-2.3734445e-10,-3.1879996e-14,-1.5970929e-15,4.835134e-16,-1.687298e-16
2516000,2516000,4.1085414e-06,-2.3734445e-10,-3.188226e-14,5.5254534e-15,-9.759423e-16,3.1803106e-17
2524000,2524000,4.1085414e-06,-2.3734448e-10,-3.188701e-14,4.627578e-16,-1.3583319e-15,-4.2588772e-16
2536000,2536000,4.1085414e-06,-2.3734445e-10,-3.1883364e-14,-3.6075366e-16,2.598731e-15,1.233838e-16
2544000,2544000,4.1085414e-06,-2.3734448e-10,-3.1878695e-14,-2.3031658e-15,-2.7420208e-15,4.474883e-16
2556000,2556000,4.1085414e-06,-2.3734445e-10,-3.1883865e-14,7.747515e-16,9.359262e-16,-4.5797833e-16
2564000,2564000,4.1085414e-06,-2.3734445e-10,-3.1880463e-14,2.6838031e-15,1.5388719e-16,2.917615e-16
2576000,2576000,4.1085414e-06,-2.3734448e-10,-3.1883394e-14,3.4926243e-15,-1.0780472e-15,-4.285616e-16
2584000,2584000,4.1085414e-06,-2.3734448e-10,-3.1884085e-14,2.670915e-16,-8.4950406e-16,-1.6981438e-16
2596000,2596000,4.1085414e-06,-2.3734445e-10,-3.188613e-14,1.2719059e-15,1.8942139e-15,-2.0412552e-16
2604000,2604000,4.1085414e-06,-2.3734442e-10,-3.1883113e-14,-1.7810685e-15,3.0499973e-15,2.6358993e-16
2616000,2616000,4.1085414e-06,-2.3734445e-10,-3.188618e-14,-1.2568955e-15,-1.7302352e-15,-4.2179303e-16
2624000,2624000,4.1085414e-06,-2.3734442e-10,-3.1885393e-14,2.861193e-16,2.2733153e-15,1.3985374e-17
2636000,2636000,4.1085414e-06,-2.3734445e-10,-3.188111e-14,2.8451902e-15,-1.6697874e-15,1.59046e-16
2644000,2644000,4.1085414e-06,-2.3734448e-10,-3.1882158e-14,-2.6756684e-15,-1.4922916e-15,-1.2978868e-17
2656000,2656000,1.8861376e-06,-9.924037e-07,1.4989483e-06,2.9496855e-15,-2.6420656e-15,-2.7669506e-17
2664000,2664000,1.8861376e-06,-9.924037e-07,1.4989483e-06,1.9699255e-16,2.8777174e-15,1.1395723e-16
2676000,2676000,1.8861376e-06,-9.924037e-07,1.4989483e-06,-4.5741156e-15,2.313228e-16,1.74891e-16
2684000,2684000,1.8861376e-06,-9.924037e-07,1.4989483e-06,9.001481e-16,-2.6469394e-15,-3.4766912e-16
2696000,2696000,1.8861376e-06,-9.924037e-07,1.4989483e-06,2.428094e-15,2.1638854e-15,1.5305516e-16
2704000,2704000,1.8861376e-06,-9.924037e-07,1.4989483e-06,-3.3143465e-15,3.2868067e-15,4.8117946e-16
2716000,2716000,1.8861376e-06,-9.924037e-07,1.4989483e-06,2.4764245e-15,-3.713848e-15,5.210502e-17
2724000,2724000,1.8861376e-06,-9.924037e-07,1.4989483e-06,1.3611381e-15,2.3351407e-15,-2.9987293e-16
2736000,2736000,1.8861376e-06,-9.924037e-07,1.4989483e-06,8.4718065e-16,2.1899599e-15,6.1563e-17
2744000,2744000,1.8861376e-06,-9.924037e-07,1.4989483e-06,-3.915537e-16,-4.441449e-16,1.9979243e-16
2756000,2756000,1.8861376e-06,-9.924037e-07,1.4989483e-06,-2.6724855e-15,-1.0483075e-15,-3.0478236e-16
2764000,2764000,1.8861376e-06,-9.924037e-07,1.4989483e-06,3.2476376e-15,1.0293856e-15,5.499044e-16
2776000,2776000,1.8861376e-06,-9.924037e-07,1.4989483e-06,-1.02092034e-16,-1.7934822e-15,-1.564898e-16
2784000,2784000,7.622957e-07,-6.6981643e-06,-2.1539509e-07,-1.5646044e-15,2.3540951e-16,2.3112265e-16
2796000,2796000,7.622957e-07,-6.6981643e-06,-2.1539509e-07,5.286299e-16,-1.1055343e-15,-1.7914158e-16
2804000,2804000,7.622957e-07,-6.6981643e-06,-2.1539509e-07,-9.932624e-16,-2.620058e-15,-3.4519144e-16
2816000,2816000,7.622957e-07,-6.6981643e-06,-2.1539509e-07,1.5018361e-15,5.99366e-16,2.938848e-16
2824000,2824000,7.622957e-07,-6.6981643e-06,-2.1539509e-07,-1.6483192e-16,9.251355e-16,-4.615234e-16
2836000,2836000,7.622957e-07,-6.6981643e-06,-2.1539509e-07,-3.2125868e-15,8.4623584e-16,1.9174e-16
2844000,2844000,7.622957e-07,-6.6981643e-06,-2.1539509e-07,-3.5858145e-15,1.128888e-15,3.7455196e-16
2856000,2856000,7.622957e-07,-6.6981643e-06,-2.1539509e-07,3.705271e-15,9.588484e-16,1.3688051e-16
2864000,2864000,7.622957e-07,-6.6981643e-06,-2.1539509e-07,4.179129e-15,-1.5332177e-15,1.7237245e-16
2876000,2876000,7.622957e-07,-6.6981643e-06,-2.1539509e-07,-1.5255191e-15,3.7220894e-16,9.211881e-17
2884000,2884000,7.622957e-07,-6.6981643e-06,-2.1539509e-07,7.239105e-16,1.366496e-16,-2.060185e-16
2896000,2896000,7.622957e-07,-6.6981643e-06,-2.1539509e-07,4.4822e-16,7.1495743e-16,1.8156698e-16
2904000,2904000,-1.82804e-05,-1.3829257e-05,-2.1983169e-07,4.1117618e-15,-2.1555976e-15,1.9189643e-16
2916000,2916000,-1.82804e-05,-1.3829257e-05,-2.1983169e-07,-2.262007e-15,4.555256e-15,-3.3838205e-17
2924000,2924000,-1.82804e-05,-1.3829257e-05,-2.1983169e-07,-8.339667e-17,2.7121984e-15,-1.4111071e-16
2936000,2936000,-1.82804e-05,-1.3829257e-05,-2.1983169e-07,4.5246806e-16,1.422121e-15,5.486099e-16
2944000,2944000,-1.82804e-05,-1.3829257e-05,-2.1983169e-07,-1.1378304e-15,-3.894577e-16,-5.268127e-16
2956000,2956000,-1.82804e-05,-1.3829257e-05,-2.1983169e-07,-9.912296e-16,-2.079703e-15,2.4375504e-16
2964000,2964000,-1.82804e-05,-1.3829257e-05,-2.1983169e-07,2.1258003e-15,3.8159554e-16,2.7846413e-17
2976000,2976000,-1.82804e-05,-1.3829257e-05,-2.1983169e-07,3.5567485e-16,-3.891441e-16,-5.619998e-16
2984000,2984000,-1.82804e-05,-1.3829257e-05,-2.1983169e-07,1.2393225e-16,7.454652e-16,1.1473687e-16
2996000,2996000,-1.82804e-05,-1.3829257e-05,-2.1983169e-07,2.0581666e-15,-1.4029316e-15,3.4088502e-16
3004000,3004000,-1.82804e-05,-1.3829257e-05,-2.1983169e-07,-2.240631e-15,2.9915073e-15,-4.860807e-17
3016000,3016000,-1.82804e-05,-1.3829257e-05,-2.1983169e-07,1.3839957e-15,-1.8630837e-15,-2.0529673e-16
3024000,3024000,-1.82804e-05,-1.3829257e-05,-2.1983169e-07,6.284947e-16,-2.6244583e-15,-7.8966175e-17
3036000,3036000,5.2403707e-06,3.057673e-05,-1.9608878e-07,-2.9419106e-15,1.0863367e-15,8.4307115e-17
3044000,3044000,5.2403707e-06,3.057673e-05,-1.9608878e-07,-4.755481e-16,-4.7743525e-15,-7.634154e-16
3056000,3056000,5.2403707e-06,3.057673e-05,-1.9608878e-07,3.1156665e-15,4.285723e-16,-1.05448316e-16
3064000,3064000,5.2403707e-06,3.057673e-05,-1.9608878e-07,1.4673468e-15,9.593896e-16,3.1229604e-16
3076000,3076000,5.2403707e-06,3.057673e-05,-1.9608878e-07,-3.9380938e-15,-4.043768e-16,1.6307553e-16
3084000,3084000,5.2403707e-06,3.057673e-05,-1.9608878e-07,-2.7922024e-15,4.2078183e-15,1.8485316e-16
3096000,3096000,5.2403707e-06,3.057673e-05,-1.9608878e-07,-1.3358192e-15,-1.7811127e-15,2.4227114e-16
3104000,3104000,5.2403707e-06,3.057673e-05,-1.9608878e-07,2.8548127e-15,-1.2820974e-15,-2.2740886e-16
3116000,3116000,5.2403707e-06,3.057673e-05,-1.9608878e-07,-2.179963e-15,4.0028538e-16,7.3886545e-17
3124000,3124000,5.2403707e-06,3.057673e-05,-1.9608878e-07,8.2666784e-16,-6.742144e-17,-6.236823e-17
3136000,3136000,5.2403707e-06,3.057673e-05,-1.9608878e-07,-2.8889397e-15,1.0489076e-15,-3.4516996e-17
3144000,3144000,5.2403707e-06,3.057673e-05,-1.9608878e-07,1.6142024e-15,-4.0973508e-15,1.4765282e-16
3156000,3156000,5.2403707e-06,3.057673e-05,-1.9608878e-07,2.178903e-15,5.0403826e-15,7.9722126e-17
3164000,3164000,-1.3491631e-05,2.3888844e-05,-1.7118008e-07,-1.7334432e-15,-1.884097e-15,1.3761267e-16
3176000,3176000,-1.3491631e-05,2.3888844e-05,-1.7118008e-07,-1.6022857e-15,-1.1206033e-15,-2.4915432e-16
3184000,3184000,-1.3491631e-05,2.3888844e-05,-1.7118008e-07,-7.2040364e-17,8.537533e-16,4.0688508e-17
3196000,3196000,-1.3491631e-05,2.3888844e-05,-1.7118008e-07,8.4505843e-17,-1.4608718e-15,-3.1846747e-16
3204000,3204000,-1.3491631e-05,2.3888844e-05,-1.7118008e-07,1.2216084e-15,2.9418903e-15,2.4542023e-16
3216000,3216000,-1.3491631e-05,2.3888844e-05,-1.7118008e-07,-4.5571484e-16,-1.4093337e-15,-1.7258602e-16
3224000,3224000,-1.3491631e-05,2.3888844e-05,-1.7118008e-07,1.9055673e-15,7.35596e-16,4.031322e-16
3236000,3236000,-1.3491631e-05,2.3888844e-05,-1.7118008e-07,1.0050279e-16,1.726972e-15,-6.5722176e-18
3244000,3244000,-1.3491631e-05,2.3888844e-05,-1.7118008e-07,-5.142246e-15,-1.2695283e-15,4.6846113e-17
3256000,3256000,-1.3491631e-05,2.3888844e-05,-1.7118008e-07,7.850672e-16,1.6168429e-15,3.2748997e-17
3264000,3264000,-1.3491631e-05,2.3888844e-05,-1.7118008e-07,-6.320975e-16,1.9317184e-15,2.1096868e-16
3276000,3276000,-1.3491631e-05,2.3888844e-05,-1.7118008e-07,2.1802145e-15,-1.057744e-15,-3.2795753e-16
3284000,3284000,-5.472897e-05,4.673198e-05,-1.8941375e-07,-5.8187225e-16,6.370148e-17,4.8887025e-16
3296000,3296000,-5.472897e-05,4.673198e-05,-1.8941375e-07,-1.1902876e-15,-2.3982937e-15,-2.4539476e-16
3304000,3304000,-5.472897e-05,4.673198e-05,-1.8941375e-07,2.531076e-15,-4.2145178e-16,2.1849682e-16
3316000,3316000,-5.472897e-05,4.673198e-05,-1.8941375e-07,-5.7781517e-16,-8.619511e-16,1.7314864e-16
3324000,3324000,-5.472897e-05,4.673198e-05,-1.8941375e-07,-7.043112e-17,4.1647856e-15,2.4312982e-16
3336000,3336000,-5.472897e-05,4.673198e-05,-1.8941375e-07,-4.4185804e-15,-2.740305e-16,-1.4517155e-16
3344000,3344000,-5.472897e-05,4.673198e-05,-1.8941375e-07,2.9967003e-15,4.170641e-16,9.9062495e-17
3356000,3356000,-5.472897e-05,4.673198e-05,-1.8941375e-07,8.0942045e-17,5.5435474e-16,3.4479657e-16
3364000,3364000,-5.472897e-05,4.673198e-05,-1.8941375e-07,-1.5439852e-15,6.5562817e-16,-5.6160423e-16
3376000,3376000,-5.472897e-05,4.673198e-05,-1.8941375e-07,4.4617037e-17,1.5561221e-15,-2.4410669e-17
3384000,3384000,-5.472897e-05,4.673198e-05,-1.8941375e-07,-1.2715843e-16,-5.456364e-17,-7.7951185e-17
3396000,3396000,-5.472897e-05,4.673198e-05,-1.8941375e-07,-7.4111857e-16,1.8691546e-15,3.5862134e-16
3404000,3404000,-5.472897e-05,4.673198e-05,-1.8941375e-07,1.4436843e-15,1.9476904e-15,4.668681e-18
3416000,3416000,-1.1115562e-05,7.034521e-05,-1.9551679e-07,-7.17918e-16,4.3408337e-16,-1.480324e-16
3424000,3424000,-1.1115562e-05,7.034521e-05,-1.9551679e-07,-2.447207e-15,-1.2850762e-17,1.0722538e-16
3436000,3436000,-1.1115562e-05,7.034521e-05,-1.9551679e-07,1.0737267e-15,-3.4089165e-15,-2.4082457e-16
3444000,3444000,-1.1115562e-05,7.034521e-05,-1.9551679e-07,8.7770316e-16,1.1394138e-15,-1.2824533e-16
3456000,3456000,-1.1115562e-05,7.034521e-05,-1.9551679e-07,-4.4752037e-15,-5.5798613e-16,1.06471505e-16
3464000,3464000,-1.1115562e-05,7.034521e-05,-1.9551679e-07,-1.7970643e-15,-1.7865509e-16,-1.6172752e-16
3476000,3476000,-1.1115562e-05,7.034521e-05,-1.9551679e-07,3.184596e-15,4.6113638e-17,8.973254e-17
3484000,3484000,-1.1115562e-05,7.034521e-05,-1.9551679e-07,-4.2360944e-15,2.429913e-16,2.5610915e-16
3496000,3496000,-1.1115562e-05,7.034521e-05,-1.9551679e-07,-4.4249488e-16,1.2480901e-15,-1.1702832e-16
3504000,3504000,-1.1115562e-05,7.034521e-05,-1.9551679e-07,3.5769634e-15,-5.297531e-16,-6.184816e-16
3516000,3516000,-1.1115562e-05,7.034521e-05,-1.9551679e-07,-3.3433762e-16,2.0612193e-15,3.4197952e-16
3524000,3524000,-1.1115562e-05,7.034521e-05,-1.9551679e-07,2.3569833e-15,2.2560771e-15,-2.4131749e-17
3536000,3536000,6.312029e-06,5.9983482e-05,-1.931253e-07,2.0254551e-16,-3.5891132e-15,-8.688417e-17
3544000,3544000,6.312029e-06,5.9983482e-05,-1.931253e-07,-2.2424185e-15,-1.6042541e-15,6.922026e-17
3556000,3556000,6.312029e-06,5.9983482e-05,-1.931253e-07,-3.9541843e-16,1.6478807e-15,2.869463e-16
3564000,3564000,6.312029e-06,5.9983482e-05,-1.931253e-07,-2.504354e-16,-1.3444886e-15,4.6120894e-17
3576000,3576000,6.312029e-06,5.9983482e-05,-1.931253e-07,2.793626e-15,-8.0098146e-16,1.3223713e-16
3584000,3584000,6.312029e-06,5.9983482e-05,-1.931253e-07,-1.8483682e-15,1.3597534e-15,-1.9822205e-16
3596000,3596000,6.312029e-06,5.9983482e-05,-1.931253e-07,2.9046166e-15,-2.025651e-17,4.330833e-16
3604000,3604000,6.312029e-06,5.9983482e-05,-1.931253e-07,2.6920842e-15,2.2572425e-16,-3.084898e-16
3616000,3616000,6.312029e-06,5.9983482e-05,-1.931253e-07,-4.66636e-16,-1.5235208e-15,-2.9826306e-16
3624000,3624000,6.312029e-06,5.9983482e-05,-1.931253e-07,-3.1560514e-17,1.4895223e-15,2.5732126e-17
3636000,3636000,6.312029e-06,5.9983482e-05,-1.931253e-07,-7.770317e-16,5.706659e-16,4.0849815e-17
3644000,3644000,6.312029e-06,5.9983482e-05,-1.931253e-07,-1.5225832e-15,-6.434787e-16,1.4392572e-16
3656000,3656000,2.797872e-06,1.4067803e-07,-1.2738182e-07,5.472e-16,7.664543e-16,5.474232e-16
3664000,3664000,2.797872e-06,1.4067803e-07,-1.2738182e-07,3.3521788e-15,3.6681206e-16,6.44117e-17
3676000,3676000,2.797872e-06,1.4067803e-07,-1.2738182e-07,-1.5177799e-15,-1.1827179e-15,-7.78747e-17
3684000,3684000,2.797872e-06,1.4067803e-07,-1.2738182e-07,2.4917952e-16,-3.060806e-16,-3.0513038e-16
3696000,3696000,2.797872e-06,1.4067803e-07,-1.2738182e-07,2.1016158e-15,1.0766892e-15,4.6790195e-16
3704000,3704000,2.797872e-06,1.4067803e-07,-1.2738182e-07,8.1843203e-16,-5.3412945e-16,-4.9276893e-16
3716000,3716000,2.797872e-06,1.4067803e-07,-1.2738182e-07,-3.3727717e-15,-1.3272505e-15,1.4337388e-16
3724000,3724000,2.797872e-06,1.4067803e-07,-1.2738182e-07,1.968619e-15,-3.1668873e-16,6.724414e-17
3736000,3736000,2.797872e-06,1.4067803e-07,-1.2738182e-07,3.7861077e-15,1.2126812e-15,2.5707998e-16
3744000,3744000,2.797872e-06,1.4067803e-07,-1.2738182e-07,1.0402011e-15,5.6760355e-16,-1.4012769e-16
3756000,3756000,2.797872e-06,1.4067803e-07,-1.2738182e-07,2.1200292e-15,-2.5395632e-15,1.4216028e-16
3764000,3764000,2.797872e-06,1.4067803e-07,-1.2738182e-07,-1.2123796e-15,-1.8745686e-16,3.3491746e-16
3776000,3776000,2.797872e-06,1.4067803e-07,-1.2738182e-07,-4.579208e-15,1.125624e-15,-2.3928313e-16
3784000,3784000,6.984582e-05,2.7522468e-05,-1.6435452e-07,-2.2419647e-15,1.1460601e-15,1.3834995e-16
3796000,3796000,6.984582e-05,2.7522468e-05,-1.6435452e-07,3.3763339e-15,-2.0940493e-15,2.437634e-16
3804000,3804000,6.984582e-05,2.7522468e-05,-1.6435452e-07,-1.1103926e-15,6.869274e-16,6.9758576e-17
3816000,3816000,6.984582e-05,2.7522468e-05,-1.6435452e-07,2.7547206e-17,-9.5408415e-17,-9.1529374e-17
3824000,3824000,6.984582e-05,2.7522468e-05,-1.6435452e-07,3.3377958e-15,4.78612e-16,6.8439154e-18
3836000,3836000,6.984582e-05,2.7522468e-05,-1.6435452e-07,-1.4184958e-15,-6.790582e-16,9.396915e-17
3844000,3844000,6.984582e-05,2.7522468e-05,-1.6435452e-07,-8.383712e-16,7.576714e-16,6.5914754e-17
3856000,3856000,6.984582e-05,2.7522468e-05,-1.6435452e-07,-2.0860287e-15,-1.2869362e-15,-2.1280056e-16
3864000,3864000,6.984582e-05,2.7522468e-05,-1.6435452e-07,-1.5983229e-15,9.461894e-16,-2.63845e-16
3876000,3876000,6.984582e-05,2.7522468e-05,-1.6435452e-07,2.505677e-15,9.481157e-17,3.6195258e-16
3884000,3884000,6.984582e-05,2.7522468e-05,-1.6435452e-07,-7.3756156e-16,-2.8417612e-15,-5.807789e-17
3896000,3896000,6.984582e-05,2.7522468e-05,-1.6435452e-07,2.3258625e-15,-2.6769513e-15,1.6571543e-16
3904000,3904000,7.6914315e-05,6.6167544e-05,-1.8679951e-07,-3.9535547e-15,-3.8183822e-16,5.0668945e-17
3916000,3916000,7.6914315e-05,6.6167544e-05,-1.8679951e-07,-8.942411e-16,3.0511944e-15,-1.0479128e-16
3924000,3924000,7.6914315e-05,6.6167544e-05,-1.8679951e-07,5.148218e-15,1.9616982e-15,5.0777333e-16
3936000,3936000,7.6914315e-05,6.6167544e-05,-1.8679951e-07,4.295871e-15,-1.5235969e-15,-4.840475e-16
3944000,3944000,7.6914315e-05,6.6167544e-05,-1.8679951e-07,-2.778068e-15,1.1121101e-15,5.751687e-16
3956000,3956000,7.6914315e-05,6.6167544e-05,-1.8679951e-07,-1.4286583e-15,-1.9688874e-15,-4.3022495e-16
3964000,3964000,7.6914315e-05,6.6167544e-05,-1.8679951e-07,3.2957046e-15,1.9022372e-15,-2.9009354e-18
3976000,3976000,7.6914315e-05,6.6167544e-05,-1.8679951e-07,1.7036806e-15,-3.1749416e-15,-3.5726397e-17
3984000,3984000,7.6914315e-05,6.6167544e-05,-1.8679951e-07,-9.850125e-17,-6.7753837e-16,-1.6520336e-16
3996000,3996000,7.6914315e-05,6.6167544e-05,-1.8679951e-07,-1.950087e-15,2.2240536e-15,6.5115626e-16
4004000,4004000,7.6914315e-05,6.6167544e-05,-1.8679951e-07,3.061491e-16,2.283302e-15,-1.3607832e-16
4012000,4012000,7.6914315e-05,6.6167544e-05,-1.8679951e-07,7.433722e-16,-7.866507e-16,-5.013684e-16
4024000,4024000,7.6914315e-05,6.6167544e-05,-1.8679951e-07,-1.3026308e-16,-2.701246e-15,1.6514559e-16
4036000,4036000,-5.4585915e-05,6.667774e-05,-9.470965e-08,-2.0448667e-16,2.7927695e-15,1.2638213e-16
4044000,4044000,-5.4585915e-05,6.667774e-05,-9.470965e-08,-1.3338416e-15,1.0427367e-15,1.1985991e-16
4056000,4056000,-5.4585915e-05,6.667774e-05,-9.470965e-08,2.527058e-15,1.0527769e-15,2.9543437e-16
4064000,4064000,-5.4585915e-05,6.667774e-05,-9.470965e-08,2.1237642e-15,-4.625019e-16,-3.8599352e-16
4076000,4076000,-5.4585915e-05,6.667774e-05,-9.470965e-08,-6.557697e-17,-1.9956278e-15,1.9442946e-16
4084000,4084000,-5.4585915e-05,6.667774e-05,-9.470965e-08,-2.5485002e-15,3.309092e-16,2.7644686e-16
4096000,4096000,-5.4585915e-05,6.667774e-05,-9.470965e-08,3.58977e-16,3.7368434e-15,-1.01880064e-16
4104000,4104000,-5.4585915e-05,6.667774e-05,-9.470965e-08,-1.4458408e-15,-1.1249993e-15,5.2995794e-17
4116000,4116000,-5.4585915e-05,6.667774e-05,-9.470965e-08,1.360314e-15,-1.2332414e-15,2.6239995e-16
4124000,4124000,-5.4585915e-05,6.667774e-05,-9.470965e-08,3.9348924e-15,2.3273863e-15,-1.0482639e-16
4136000,4136000,-5.4585915e-05,6.667774e-05,-9.470965e-08,-2.4575331e-15,-8.0694304e-16,9.951103e-17
4144000,4144000,-5.4585915e-05,6.667774e-05,-9.470965e-08,-1.5040349e-15,-7.8837846e-16,-4.2741283e-16
4156000,4156000,-5.4585915e-05,6.667774e-05,-9.470965e-08,-6.1146055e-15,6.014532e-16,-6.557724e-17
4164000,4164000,-7.661811e-05,8.960525e-05,-7.877165e-08,3.5298688e-15,-9.342432e-16,-4.3131344e-16
4176000,4176000,-7.661811e-05,8.960525e-05,-7.877165e-08,1.1141579e-15,2.205825e-15,4.728635e-16
4184000,4184000,-7.661811e-05,8.960525e-05,-7.877165e-08,1.3788603e-15,2.2400504e-15,6.770341e-17
4196000,4196000,-7.661811e-05,8.960525e-05,-7.877165e-08,1.6180715e-15,1.5919465e-16,1.5050128e-16
4204000,4204000,-7.661811e-05,8.960525e-05,-7.877165e-08,-1.4584751e-15,-1.6973679e-15,3.332266e-16
4216000,4216000,-7.661811e-05,8.960525e-05,-7.877165e-08,2.2149996e-15,-2.3605843e-15,-2.4160837e-16
4224000,4224000,-7.661811e-05,8.960525e-05,-7.877165e-08,1.9559213e-15,1.6831476e-16,-1.341071e-16
4236000,4236000,-7.661811e-05,8.960525e-05,-7.877165e-08,-3.9100807e-15,2.191927e-16,2.1980706e-16
4244000,4244000,-7.661811e-05,8.960525e-05,-7.877165e-08,-2.3316244e-16,-1.4288721e-15,-3.1399578e-16
4256000,4256000,-7.661811e-05,8.960525e-05,-7.877165e-08,2.0123199e-15,-2.2977357e-16,2.686959e-16
4264000,4264000,-7.661811e-05,8.960525e-05,-7.877165e-08,-3.645581e-16,1.6922024e-15,-7.799077e-17
4276000,4276000,-7.661811e-05,8.960525e-05,-7.877165e-08,-1.2489718e-15,5.5690413e-15,2.0303966e-16
4284000,4284000,3.0539086e-05,-1.1848442e-06,-1.18231135e-07,-6.239605e-17,-2.090061e-15,-2.833477e-16
4296000,4296000,3.0539086e-05,-1.1848442e-06,-1.18231135e-07,1.0598318e-15,-1.3896393e-15,3.0654326e-16
4304000,4304000,3.0539086e-05,-1.1848442e-06,-1.18231135e-07,-4.339331e-15,-1.7803071e-16,1.8003783e-16
4316000,4316000,3.0539086e-05,-1.1848442e-06,-1.18231135e-07,5.5571926e-17,2.1748614e-16,-6.528442e-17
4324000,4324000,3.0539086e-05,-1.1848442e-06,-1.18231135e-07,2.1457394e-15,-2.2675898e-15,-4.3397614e-16
4332000,4332000,3.0539086e-05,-1.1848442e-06,-1.18231135e-07,-1.2147089e-15,1.9167405e-15,3.4840898e-16
4344000,4344000,3.0539086e-05,-1.1848442e-06,-1.18231135e-07,-5.121912e-16,-1.1641026e-15,-4.555517e-16
4356000,4356000,3.0539086e-05,-1.1848442e-06,-1.18231135e-07,3.1725975e-15,-1.1220048e-15,4.834973e-16
4364000,4364000,3.0539086e-05,-1.1848442e-06,-1.18231135e-07,1.07298e-15,-8.7958194e-16,2.366396e-16
4376000,4376000,3.0539086e-05,-1.1848442e-06,-1.18231135e-07,-8.3035487e-16,-3.736849e-16,-1.040895e-16
4384000,4384000,3.0539086e-05,-1.1848442e-06,-1.18231135e-07,-1.0343993e-15,1.8907512e-15,-1.2804633e-16
4396000,4396000,3.0539086e-05,-1.1848442e-06,-1.18231135e-07,4.225946e-15,-1.9468406e-16,2.4119705e-16
4404000,4404000,3.0539086e-05,-1.1848442e-06,-1.18231135e-07,-3.9906212e-15,-2.3422994e-15,1.4931908e-16
4416000,4416000,3.8888655e-05,7.0054426e-05,-1.6902996e-07,-3.6334495e-16,2.1566175e-15,-3.1987188e-16
4424000,4424000,3.8888655e-05,7.0054426e-05,-1.6902996e-07,6.148751e-15,-3.7649344e-16,2.4267293e-16
4436000,4436000,3.8888655e-05,7.0054426e-05,-1.6902996e-07,-4.9258053e-15,1.4707241e-15,-2.407828e-16
4444000,4444000,3.8888655e-05,7.0054426e-05,-1.6902996e-07,4.5767918e-15,4.9327163e-15,1.941127e-16
4456000,4456000,3.8888655e-05,7.0054426e-05,-1.6902996e-07,-2.9054014e-15,-2.8387062e-15,8.5688414e-17
4464000,4464000,3.8888655e-05,7.0054426e-05,-1.6902996e-07,-5.0400913e-15,-3.6065223e-16,-1.8520263e-16
4476000,4476000,3.8888655e-05,7.0054426e-05,-1.6902996e-07,6.820775e-17,2.7459699e-15,8.9630214e-17
4484000,4484000,3.8888655e-05,7.0054426e-05,-1.6902996e-07,4.8969634e-15,-1.2708988e-16,1.6524714e-16
4496000,4496000,3.8888655e-05,7.0054426e-05,-1.6902996e-07,-2.053138e-15,-2.0604631e-15,-1.4311657e-16
4504000,4504000,3.8888655e-05,7.0054426e-05,-1.6902996e-07,-3.0874093e-15,-1.1361818e-15,1.2740616e-16
4516000,4516000,3.8888655e-05,7.0054426e-05,-1.6902996e-07,7.468223e-16,1.2369275e-15,-3.557653e-16
4524000,4524000,3.8888655e-05,7.0054426e-05,-1.6902996e-07,-1.4163667e-15,-3.3130387e-15,-6.4828524e-16
4532000,4532000,4.829027e-05,1.462482e-05,-1.4588117e-07,-3.7705998e-15,7.205995e-16,-2.2590507e-18
4544000,4544000,4.829027e-05,1.462482e-05,-1.4588117e-07,1.0105364e-15,4.7994846e-16,6.671738e-17
4556000,4556000,4.829027e-05,1.462482e-05,-1.4588117e-07,-5.074668e-16,-1.9642027e-15,1.8899318e-16
4564000,4564000,4.829027e-05,1.462482e-05,-1.4588117e-07,1.4485624e-15,-2.7780203e-15,1.368708e-16
4576000,4576000,4.829027e-05,1.462482e-05,-1.4588117e-07,2.1363971e-17,2.0899445e-15,-1.9300605e-18
4584000,4584000,4.829027e-05,1.462482e-05,-1.4588117e-07,-1.5217123e-15,-3.3407572e-16,-4.2223147e-16
4596000,4596000,4.829027e-05,1.462482e-05,-1.4588117e-07,1.1858335e-15,-7.5493887e-16,2.8521638e-16
4604000,4604000,4.829027e-05,1.462482e-05,-1.4588117e-07,2.5156578e-15,-1.3476251e-15,6.2802596e-17
4616000,4616000,4.829027e-05,1.462482e-05,-1.4588117e-07,-2.5372669e-15,-1.0416206e-15,-1.1313209e-16
4624000,4624000,4.829027e-05,1.462482e-05,-1.4588117e-07,3.111836e-16,3.7558152e-15,1.4446361e-16
4636000,4636000,4.829027e-05,1.462482e-05,-1.4588117e-07,3.2820612e-15,-2.0904663e-15,6.4507495e-17
4644000,4644000,4.829027e-05,1.462482e-05,-1.4588117e-07,5.044179e-15,-2.321172e-16,2.7313488e-16
4656000,4656000,0.000103893944,-0.00015767837,-1.0668207e-07,-6.1814745e-15,5.576714e-17,-8.4994224e-16
4664000,4664000,0.000103893944,-0.00015767837,-1.0668207e-07,-2.8565547e-15,-6.7674184e-16,3.6691757e-16
4676000,4676000,0.000103893944,-0.00015767837,-1.0668207e-07,-1.1444559e-16,8.7920315e-16,1.8851241e-16
4684000,4684000,0.000103893944,-0.00015767837,-1.0668207e-07,1.8682766e-15,-3.4292391e-15,-2.5720158e-16
4696000,4696000,0.000103893944,-0.00015767837,-1.0668207e-07,4.789029e-16,5.4941903e-16,-3.4890462e-16
4704000,4704000,0.000103893944,-0.00015767837,-1.0668207e-07,-1.684962e-15,-8.1915577e-16,1.2285543e-16
4716000,4716000,0.000103893944,-0.00015767837,-1.0668207e-07,4.502276e-15,3.4940012e-15,4.2020518e-16
4724000,4724000,0.000103893944,-0.00015767837,-1.0668207e-07,-3.5318394e-15,1.1571825e-15,5.1332506e-17
4736000,4736000,0.000103893944,-0.00015767837,-1.0668207e-07,-3.2871591e-15,-1.862574e-15,-6.0600305e-16
4744000,4744000,0.000103893944,-0.00015767837,-1.0668207e-07,2.2486285e-15,3.0709246e-16,-1.0363453e-16
4756000,4756000,0.000103893944,-0.00015767837,-1.0668207e-07,2.3908138e-16,1.0182514e-15,2.9763224e-16
4764000,4764000,0.000103893944,-0.00015767837,-1.0668207e-07,-2.9226705e-15,-2.2749746e-15,1.8569155e-16
4776000,4776000,0.000103893944,-0.00015767837,-1.0668207e-07,5.5588155e-15,1.115604e-15,6.547884e-17
4784000,4784000,8.6440945e-05,-0.00013456416,-9.6274896e-08,2.680868e-15,9.08829e-16,-2.1143639e-16
4796000,4796000,8.6440945e-05,-0.00013456416,-9.6274896e-08,-5.9583844e-16,-2.1626848e-15,1.2876935e-16
4804000,4804000,8.6440945e-05,-0.00013456416,-9.6274896e-08,-4.8151142e-15,-4.400749e-16,-1.3882628e-16
4816000,4816000,8.6440945e-05,-0.00013456416,-9.6274896e-08,1.9377355e-15,-2.8919553e-15,-1.7163135e-16
4824000,4824000,8.6440945e-05,-0.00013456416,-9.6274896e-08,-5.5313226e-16,-7.6931153e-16,-1.199235e-16
4836000,4836000,8.6440945e-05,-0.00013456416,-9.6274896e-08,1.1861272e-15,2.824222e-15,7.1614915e-16
4844000,4844000,8.6440945e-05,-0.00013456416,-9.6274896e-08,1.8222346e-17,9.049124e-16,-1.3606524e-16
4856000,4856000,8.6440945e-05,-0.00013456416,-9.6274896e-08,1.0329851e-15,1.3056064e-15,-5.5402133e-16
4864000,4864000,8.6440945e-05,-0.00013456416,-9.6274896e-08,3.7425037e-15,-3.912425e-16,-2.0462152e-16
4876000,4876000,8.6440945e-05,-0.00013456416,-9.6274896e-08,-4.8405506e-15,-2.1457293e-15,7.6983955e-16
4884000,4884000,8.6440945e-05,-0.00013456416,-9.6274896e-08,-1.2458103e-15,-2.9688566e-15,2.1309703e-16
4896000,4896000,8.6440945e-05,-0.00013456416,-9.6274896e-08,2.3437806e-15,-1.0620923e-15,-7.9935256e-16
4904000,4904000,8.303409e-05,-0.00012426167,-9.7984724e-08,-5.852173e-16,-3.4663748e-15,-2.969429e-16
4916000,4916000,8.303409e-05,-0.00012426167,-9.7984724e-08,-1.2781336e-15,4.295543e-15,6.790416e-16
4924000,4924000,8.303409e-05,-0.00012426167,-9.7984724e-08,2.2876666e-17,1.9802834e-15,1.1597236e-16
4936000,4936000,8.303409e-05,-0.00012426167,-9.7984724e-08,-1.544096e-16,-2.6336167e-15,-1.6378302e-16
4944000,4944000,8.303409e-05,-0.00012426167,-9.7984724e-08,2.565644e-15,7.308721e-16,4.312816e-16
4956000,4956000,8.303409e-05,-0.00012426167,-9.7984724e-08,-4.4077996e-16,-6.616168e-16,-4.2806165e-16
4964000,4964000,8.303409e-05,-0.00012426167,-9.7984724e-08,7.4341647e-17,-2.3437118e-15,-5.697081e-16
4976000,4976000,8.303409e-05,-0.00012426167,-9.7984724e-08,-3.3782806e-15,-2.8050614e-15,6.022892e-16
4984000,4984000,8.303409e-05,-0.00012426167,-9.7984724e-08,5.961363e-16,5.803553e-15,-8.1536323e-16
4996000,4996000,8.303409e-05,-0.00012426167,-9.7984724e-08,-2.3725702e-15,-4.5958195e-15,2.9689704e-16
5004000,5004000,8.303409e-05,-0.00012426167,-9.7984724e-08,3.925343e-15,2.0095607e-15,1.4040304e-16
5016000,5016000,8.303409e-05,-0.00012426167,-9.7984724e-08,1.3212659e-15,7.358463e-16,7.24211e-16
5024000,5024000,8.303409e-05,-0.00012426167,-9.7984724e-08,2.5310649e-15,-1.0355588e-15,-2.685913e-16
5036000,5036000,0.00011786294,-3.956922e-05,-1.12011335e-07,1.4923715e-15,2.4347179e-16,-8.7084086e-17
5044000,5044000,0.00011786294,-3.956922e-05,-1.12011335e-07,-3.4349717e-15,-3.576523e-15,5.315741e-16
5056000,5056000,0.00011786294,-3.956922e-05,-1.12011335e-07,2.6549053e-15,-3.2507534e-16,-8.1022243e-16
5060000,5060000,0.00011786294,-3.956922e-05,-1.12011335e-07,2.9683651e-15,1.4953443e-15,-5.606874e-16
5076000,5076000,0.00011786294,-3.956922e-05,-1.12011335e-07,-2.611885e-15,3.409567e-15,5.375462e-16
5084000,5084000,0.00011786294,-3.956922e-05,-1.12011335e-07,1.872538e-15,-6.5453658e-15,3.1859985e-16
5092000,5092000,0.00011786294,-3.956922e-05,-1.12011335e-07,-2.216019e-15,4.596447e-15,6.769469e-16
5104000,5104000,0.00011786294,-3.956922e-05,-1.12011335e-07,-1.1280444e-15,-7.0644496e-16,7.199565e-17
5116000,5116000,0.00011786294,-3.956922e-05,-1.12011335e-07,-8.0152335e-16,-1.4216675e-15,-1.4909485e-16
5124000,5124000,0.00011786294,-3.956922e-05,-1.12011335e-07,-1.1366935e-15,-1.9821808e-15,2.54825e-16
5136000,5136000,0.00011786294,-3.956922e-05,-1.12011335e-07,4.958063e-15,-7.3470616e-16,-3.0867465e-18
5144000,5144000,0.00011786294,-3.956922e-05,-1.12011335e-07,2.9077178e-15,-2.6727696e-16,-4.955141e-16
5156000,5156000,0.00011786294,-3.956922e-05,-1.12011335e-07,1.3450083e-15,-1.6705598e-16,3.8747027e-16
5164000,5164000,9.700023e-05,-4.364992e-05,-1.0550647e-07,-8.633824e-16,3.1104312e-15,2.7653458e-16
5176000,5176000,9.700023e-05,-4.364992e-05,-1.0550647e-07,1.0711868e-15,-3.1858457e-15,-1.2282486e-16
5184000,5184000,9.700023e-05,-4.364992e-05,-1.0550647e-07,-9.05996e-17,2.3206844e-15,4.3792675e-16
5196000,5196000,9.700023e-05,-4.364992e-05,-1.0550647e-07,-1.0217587e-15,-5.078238e-16,-4.2856728e-16
5204000,5204000,9.700023e-05,-4.364992e-05,-1.0550647e-07,-1.6570309e-15,-2.268777e-15,7.5458486e-16
5216000,5216000,9.700023e-05,-4.364992e-05,-1.0550647e-07,3.8416896e-15,1.8449087e-15,-3.1905362e-16
5224000,5224000,9.700023e-05,-4.364992e-05,-1.0550647e-07,-1.450005e-15,-2.5355112e-15,-2.2885154e-17
5236000,5236000,9.700023e-05,-4.364992e-05,-1.0550647e-07,-3.128677e-16,4.3630688e-16,4.41253e-16
5244000,5244000,9.700023e-05,-4.364992e-05,-1.0550647e-07,-6.9515253e-16,2.1457716e-15,6.241227e-16
5256000,5256000,9.700023e-05,-4.364992e-05,-1.0550647e-07,2.6887388e-15,-1.4270466e-15,-3.932134e-16
5264000,5264000,9.700023e-05,-4.364992e-05,-1.0550647e-07,1.412654e-16,-1.3126485e-15,-6.448106e-16
5276000,5276000,9.700023e-05,-4.364992e-05,-1.0550647e-07,-1.7228288e-15,1.937638e-15,5.974426e-17
5284000,5284000,0.00015334792,-2.7949265e-05,-1.1376975e-07,-2.8733502e-16,-3.3208797e-15,-3.0108924e-16
5296000,5296000,0.00015334792,-2.7949265e-05,-1.1376975e-07,1.8401795e-15,2.6712836e-15,-8.1646067e-16
5304000,5304000,0.00015334792,-2.7949265e-05,-1.1376975e-07,-1.9666739e-16,4.915874e-15,9.357227e-16
5316000,5316000,0.00015334792,-2.7949265e-05,-1.1376975e-07,-6.435026e-16,-3.871273e-15,-2.25379e-16
5324000,5324000,0.00015334792,-2.7949265e-05,-1.1376975e-07,-9.425874e-16,4.1250013e-15,-2.4101963e-16
5332000,5332000,0.00015334792,-2.7949265e-05,-1.1376975e-07,1.2625818e-15,1.1063235e-15,-1.5057378e-16
5344000,5344000,0.00015334792,-2.7949265e-05,-1.1376975e-07,-2.9758544e-15,3.2491193e-15,8.2281834e-16
5356000,5356000,0.00015334792,-2.7949265e-05,-1.1376975e-07,1.1791458e-15,-3.1582216e-15,3.3575775e-16
5364000,5364000,0.00015334792,-2.7949265e-05,-1.1376975e-07,-1.9269159e-15,-2.4378265e-15,-6.5886815e-17
5376000,5376000,0.00015334792,-2.7949265e-05,-1.1376975e-07,-8.4512903e-16,-3.9056372e-16,-3.6397498e-16
5384000,5384000,0.00015334792,-2.7949265e-05,-1.1376975e-07,-1.4831587e-15,2.9203013e-15,-5.1425017e-16
5396000,5396000,0.00015334792,-2.7949265e-05,-1.1376975e-07,1.0179371e-15,7.566904e-16,8.6427393e-16
5404000,5404000,0.00015334792,-2.7949265e-05,-1.1376975e-07,1.2556304e-15,1.1211702e-15,2.4087783e-16
5416000,5416000,0.000113124326,4.029372e-05,-7.198931e-08,-7.1942743e-17,-3.094093e-15,-5.138444e-16
5420000,5420000,0.000113124326,4.029372e-05,-7.198931e-08,-1.6726054e-15,-3.5312295e-15,-8.241937e-16
5436000,5436000,0.000113124326,4.029372e-05,-7.198931e-08,-3.9747707e-15,1.766855e-15,-1.7389515e-16
5444000,5444000,0.000113124326,4.029372e-05,-7.198931e-08,-1.0322761e-15,-1.8278535e-15,-5.734134e-16
5456000,5456000,0.000113124326,4.029372e-05,-7.198931e-08,2.4246908e-16,1.2338765e-15,-1.8076588e-16
5464000,5464000,0.000113124326,4.029372e-05,-7.198931e-08,1.6584331e-15,-1.2806808e-15,1.7964088e-16
5476000,5476000,0.000113124326,4.029372e-05,-7.198931e-08,3.0081803e-16,-1.7196989e-15,2.883038e-17
5484000,5484000,0.000113124326,4.029372e-05,-7.198931e-08,-6.627205e-16,5.2521305e-16,5.165605e-16
5496000,5496000,0.000113124326,4.029372e-05,-7.198931e-08,-8.8277154e-16,4.511199e-16,2.446621e-16
5504000,5504000,0.000113124326,4.029372e-05,-7.198931e-08,-7.847287e-16,1.5044415e-15,2.4502617e-16
5516000,5516000,0.000113124326,4.029372e-05,-7.198931e-08,-2.264281e-15,1.2396598e-15,-9.866258e-16
5524000,5524000,0.000113124326,4.029372e-05,-7.198931e-08,-5.4149016e-15,-3.637482e-15,5.830137e-16
5532000,5532000,0.000113124326,4.029372e-05,-7.198931e-08,9.826948e-16,-1.0402852e-17,9.437876e-16
5544000,5544000,0.000113124326,4.029372e-05,-7.198931e-08,4.8007083e-15,-7.801997e-16,-8.100387e-16
5556000,5556000,0.000113124326,4.029372e-05,-7.198931e-08,-2.0675678e-15,-3.749794e-16,4.0211436e-16
5564000,5564000,0.000113124326,4.029372e-05,-7.198931e-08,-9.810074e-16,4.8951427e-15,6.7773515e-16
5576000,5576000,0.000113124326,4.029372e-05,-7.198931e-08,2.2588603e-15,-7.601372e-15,-1.319418e-15
5584000,5584000,9.026719e-05,2.1063719e-05,-7.523111e-08,4.8822545e-16,3.6715973e-15,8.3999426e-16
5596000,5596000,9.026719e-05,2.1063719e-05,-7.523111e-08,7.843287e-15,1.1503527e-15,3.1155314e-16
5604000,5604000,9.026719e-05,2.1063719e-05,-7.523111e-08,-2.6352355e-15,-8.928739e-16,-5.51268e-16
5616000,5616000,9.026719e-05,2.1063719e-05,-7.523111e-08,3.656213e-16,-1.7693375e-15,-4.6842844e-16
5624000,5624000,9.026719e-05,2.1063719e-05,-7.523111e-08,-1.8527073e-15,2.1601443e-15,-6.827154e-18
5636000,5636000,9.026719e-05,2.1063719e-05,-7.523111e-08,6.076659e-16,4.4452586e-16,1.0244652e-15
5644000,5644000,9.026719e-05,2.1063719e-05,-7.523111e-08,-1.0385814e-15,-4.0564826e-16,-1.9460419e-16
5656000,5656000,9.026719e-05,2.1063719e-05,-7.523111e-08,-1.6769965e-15,-1.6771952e-15,-8.5965104e-16
5664000,5664000,9.026719e-05,2.1063719e-05,-7.523111e-08,-3.6227582e-15,-1.3971838e-15,4.9395166e-16
5676000,5676000,9.026719e-05,2.1063719e-05,-7.523111e-08,-2.9467927e-16,-9.34078e-16,-2.518599e-16
5684000,5684000,9.026719e-05,2.1063719e-05,-7.523111e-08,1.1306471e-15,2.0402438e-15,-3.9777025e-16
5696000,5696000,9.026719e-05,2.1063719e-05,-7.523111e-08,-1.8303023e-15,5.5929628e-15,4.6009236e-16
5700000,5700000,9.026719e-05,2.1063719e-05,-7.523111e-08,-1.498371e-15,3.814127e-15,7.8979403e-17
5716000,5716000,9.026719e-05,2.1063719e-05,-7.523111e-08,-2.6470517e-15,-1.055643e-15,-3.509736e-16
5724000,5724000,9.026719e-05,2.1063719e-05,-7.523111e-08,1.5642083e-15,-3.687794e-16,-4.539847e-16
5736000,5736000,9.026719e-05,2.1063719e-05,-7.523111e-08,3.1683382e-15,-6.9762036e-15,-7.5065934e-16
5744000,5744000,9.026719e-05,2.1063719e-05,-7.523111e-08,2.8395085e-17,2.7474712e-15,7.039825e-16
5756000,5756000,9.026719e-05,2.1063719e-05,-7.523111e-08,-8.4239163e-16,1.4394139e-15,-2.4429239e-18
5764000,5764000,9.026719e-05,2.1063719e-05,-7.523111e-08,3.5692164e-15,-1.0074691e-15,-1.7164655e-16
5776000,5776000,9.026719e-05,2.1063719e-05,-7.523111e-08,-2.0446075e-15,-7.8168335e-16,-3.762653e-16
5784000,5784000,8.046113e-05,-5.534112e-05,-1.2273125e-07,-2.6542006e-15,8.097864e-16,1.5334707e-16
5796000,5796000,8.046113e-05,-5.534112e-05,-1.2273125e-07,9.69935e-16,-2.143067e-15,-9.574494e-17
5804000,5804000,8.046113e-05,-5.534112e-05,-1.2273125e-07,-2.6141728e-15,-1.6078662e-15,-4.0064208e-16
5816000,5816000,8.046113e-05,-5.534112e-05,-1.2273125e-07,5.8364593e-16,3.4534808e-15,9.089124e-16
5824000,5824000,8.046113e-05,-5.534112e-05,-1.2273125e-07,7.368183e-16,-7.582817e-16,5.0099744e-16
5836000,5836000,8.046113e-05,-5.534112e-05,-1.2273125e-07,2.4307412e-15,1.7962227e-15,9.43896e-16
5844000,5844000,8.046113e-05,-5.534112e-05,-1.2273125e-07,5.9553425e-16,2.1965868e-15,5.0885197e-16
5856000,5856000,8.046113e-05,-5.534112e-05,-1.2273125e-07,9.50775e-16,-3.6635335e-15,-6.7282135e-16
5864000,5864000,8.046113e-05,-5.534112e-05,-1.2273125e-07,2.4241812e-15,2.2597928e-16,-4.6509166e-16
5876000,5876000,8.046113e-05,-5.534112e-05,-1.2273125e-07,-1.9894928e-15,1.8325852e-16,3.203649e-16
5884000,5884000,8.046113e-05,-5.534112e-05,-1.2273125e-07,-2.1958596e-16,1.0303487e-15,-1.739299e-16
5896000,5896000,8.046113e-05,-5.534112e-05,-1.2273125e-07,-1.27204e-15,-1.5786553e-16,-1.189421e-15
5904000,5904000,0.00011089373,-9.930894e-05,-1.6504293e-07,-1.9867158e-15,1.5018902e-15,4.3726723e-16
5916000,5916000,0.00011089373,-9.930894e-05,-1.6504293e-07,3.4886636e-15,-1.4809846e-15,3.773315e-16
5924000,5924000,0.00011089373,-9.930894e-05,-1.6504293e-07,2.304651e-15,-1.8459516e-15,5.940392e-16
5936000,5936000,0.00011089373,-9.930894e-05,-1.6504293e-07,-2.3390637e-16,1.9696495e-15,-7.8904883e-16
5944000,5944000,0.00011089373,-9.930894e-05,-1.6504293e-07,-2.848467e-16,2.1655302e-15,-6.1179774e-17
5956000,5956000,0.00011089373,-9.930894e-05,-1.6504293e-07,2.2056981e-16,-8.6595355e-17,-7.135328e-18
5964000,5964000,0.00011089373,-9.930894e-05,-1.6504293e-07,2.5445276e-15,3.24461e-16,-1.6800007e-17
5976000,5976000,0.00011089373,-9.930894e-05,-1.6504293e-07,3.1897736e-16,-2.1843297e-17,6.757655e-16
5984000,5984000,0.00011089373,-9.930894e-05,-1.6504293e-07,-5.5295043e-15,-3.90413e-16,-2.0928417e-16
5992000,5992000,0.00011089373,-9.930894e-05,-1.6504293e-07,-3.4177932e-15,5.3196668e-15,-2.2888215e-16
6004000,6004000,0.00011089373,-9.930894e-05,-1.6504293e-07,-5.833325e-17,-1.7156779e-15,5.3055793e-16
6016000,6016000,0.00011089373,-9.930894e-05,-1.6504293e-07,4.854111e-15,-6.4587305e-16,1.4705375e-16
6024000,6024000,0.00011089373,-9.930894e-05,-1.6504293e-07,-4.9515187e-15,1.843314e-15,2.362028e-17
6036000,6036000,9.3823364e-05,-8.6646665e-05,-1.4613924e-07,3.4775257e-15,-2.9998565e-15,-4.0347832e-17
6044000,6044000,9.3823364e-05,-8.6646665e-05,-1.4613924e-07,4.629409e-15,-3.6521736e-15,-3.5211287e-16
6056000,6056000,9.3823364e-05,-8.6646665e-05,-1.4613924e-07,-3.6081215e-15,1.5352328e-15,4.8965746e-16
6064000,6064000,9.3823364e-05,-8.6646665e-05,-1.4613924e-07,-6.957459e-16,2.747544e-15,5.3265693e-16
6076000,6076000,9.3823364e-05,-8.6646665e-05,-1.4613924e-07,-6.101897e-16,-3.3677405e-17,6.372956e-16
6084000,6084000,9.3823364e-05,-8.6646665e-05,-1.4613924e-07,2.00857e-15,-8.1070667e-16,-1.2504315e-15
6096000,6096000,9.3823364e-05,-8.6646665e-05,-1.4613924e-07,1.7194005e-15,1.061097e-15,5.873206e-16
6104000,6104000,9.3823364e-05,-8.6646665e-05,-1.4613924e-07,-3.651361e-15,1.173423e-15,5.377337e-16
6116000,6116000,9.3823364e-05,-8.6646665e-05,-1.4613924e-07,2.0181926e-15,-3.993093e-15,-1.0404592e-15
6124000,6124000,9.3823364e-05,-8.6646665e-05,-1.4613924e-07,-1.7752605e-15,-1.2548226e-15,5.4357206e-16
6136000,6136000,9.3823364e-05,-8.6646665e-05,-1.4613924e-07,1.5908486e-15,3.6529007e-15,-3.3966e-16
6144000,6144000,9.3823364e-05,-8.6646665e-05,-1.4613924e-07,3.0212903e-15,7.993846e-16,6.103446e-16
6156000,6156000,9.3823364e-05,-8.6646665e-05,-1.4613924e-07,3.679257e-16,2.327512e-16,-2.65204e-16
6164000,6164000,9.3823364e-05,-8.6646665e-05,-1.4613924e-07,2.228963e-15,2.0402781e-15,-9.616083e-16
6176000,6176000,9.3823364e-05,-8.6646665e-05,-1.4613924e-07,-3.3811467e-15,-1.8411858e-15,6.8735045e-16
6184000,6184000,9.3823364e-05,-8.6646665e-05,-1.4613924e-07,-1.4993325e-15,1.6108855e-15,9.968413e-16
6196000,6196000,9.3823364e-05,-8.6646665e-05,-1.4613924e-07,2.440942e-15,-3.322047e-15,-9.025503e-16
6204000,6204000,9.3823364e-05,-8.6646665e-05,-1.4613924e-07,2.845694e-16,9.768227e-16,2.4170225e-16
6216000,6216000,9.3823364e-05,-8.6646665e-05,-1.4613924e-07,1.16894e-15,-1.4106137e-15,4.059728e-16
6224000,6224000,9.3823364e-05,-8.6646665e-05,-1.4613924e-07,3.17801e-15,-5.7827336e-16,-5.002316e-16
