timestamp,timestamp_sample,xyz[0],xyz[1],xyz[2],xyz_derivative[0],xyz_derivative[1],xyz_derivative[2]
348000,348000,8.561396e-17,1.4315685e-16,1.7653708e-17,5.9890135e-14,8.1352934e-14,9.2794314e-15
352000,352000,4.1156825e-17,1.00135044e-16,1.1786425e-17,2.9367547e-14,4.1758406e-14,4.659952e-15
360000,360000,-2.1833345e-17,-4.4264105e-18,-7.5763266e-19,4.7440037e-15,5.855814e-15,6.0658433e-16
368000,368000,-9.607967e-18,-2.0617113e-17,-1.7747681e-18,3.0166687e-15,7.057307e-16,7.676248e-17
376000,376000,-7.400484e-18,2.7927934e-18,2.087458e-19,6.77753e-16,2.1758155e-15,2.7491098e-16
384000,384000,2.2885978e-18,6.7862518e-18,3.654037e-18,1.5128679e-15,9.242872e-16,2.8681594e-16
400000,400000,3.2085876e-17,3.220038e-17,1.6284057e-18,3.3012838e-15,2.200814e-15,9.9310073e-17
404000,404000,6.838468e-17,4.349878e-17,2.0140072e-18,5.7830963e-15,2.4689602e-15,9.8059264e-17
420000,420000,1.0659791e-17,3.1577117e-17,3.3681055e-18,-3.327909e-15,-1.2512316e-15,-6.3844784e-17
428000,428000,-4.1208325e-17,2.7677048e-17,3.7268527e-18,-4.7755777e-15,-7.8004683e-16,2.4803292e-17
440000,440000,-2.8243142e-17,2.0875011e-17,2.5440548e-18,-1.1949114e-15,-2.1277436e-16,-1.0396618e-17
448000,448000,-4.8099788e-17,3.1217935e-17,1.5954255e-18,-1.868694e-15,6.728906e-16,-9.9822575e-17
460000,460000,-2.294288e-17,1.5816099e-18,2.3414059e-18,1.3834027e-15,-2.51396e-15,4.0556904e-17
468000,468000,4.3187613e-18,-1.2014279e-17,-2.0459247e-18,2.944431e-15,-1.578801e-15,-3.483001e-16
480000,480000,-5.3002334e-18,-2.0668699e-17,-2.5485383e-18,-1.010879e-15,-1.0089862e-15,-7.936263e-17
488000,488000,-1.9938893e-17,1.09907455e-17,-4.0861436e-18,-1.4027592e-15,2.0952732e-15,-1.645523e-16
500000,500000,-1.2961348e-17,1.2506363e-18,1.7725438e-18,-1.1196732e-15,-8.8207433e-16,3.5164263e-16
508000,508000,-2.639823e-17,1.9710134e-18,2.6233394e-18,-1.0523731e-15,2.6236718e-16,2.0801656e-16
520000,520000,1.4943704e-17,3.4563878e-17,2.770252e-18,1.1669541e-15,2.0068165e-15,8.252175e-17
528000,528000,8.556873e-18,-2.6351e-18,6.304153e-19,5.055932e-16,-2.8298888e-15,-1.9536812e-16
540000,540000,-8.700547e-18,1.3220184e-17,3.862544e-18,-3.3193315e-15,1.2157561e-15,2.0516271e-16
548000,548000,-6.394055e-17,2.3868409e-17,3.0078434e-18,-5.3374354e-15,1.3008321e-15,2.0319937e-17
560000,560000,-3.0695587e-17,2.8264345e-17,3.9093437e-18,1.8806406e-15,3.983778e-16,-4.2500573e-17
568000,568000,-8.206123e-18,2.112045e-17,-3.5211557e-18,2.3709613e-15,-4.102478e-16,-6.4866307e-16
580000,580000,-2.4414977e-17,1.26486404e-17,8.552438e-19,-5.1039876e-17,-1.3351669e-15,2.623122e-16
588000,588000,1.8172905e-17,-3.0610212e-17,-2.6928096e-18,3.4249248e-15,-3.8042486e-15,-2.4162795e-16
600000,600000,1.0758105e-17,1.8075461e-17,4.690588e-18,1.2066324e-16,2.133663e-15,4.7384786e-16
608000,608000,3.681849e-17,2.4432784e-17,4.936004e-18,1.8779224e-15,8.65888e-16,1.7709809e-16
616000,616000,-1.7035044e-17,-1.4446061e-17,6.2869416e-18,-4.043837e-15,-2.874978e-15,1.5100713e-16
628000,628000,-4.3681727e-17,4.330473e-18,3.481824e-18,-2.3890657e-15,1.1290574e-15,-2.2459325e-16
640000,640000,-5.5393592e-17,2.6423077e-17,3.8742927e-18,6.3182136e-16,9.670608e-16,-5.893408e-17
648000,648000,-1.903511e-17,1.3875305e-17,6.0373535e-18,2.8284541e-15,-4.2433548e-16,1.8932571e-16
656000,656000,-2.3559308e-17,7.22064e-18,1.8115284e-18,3.7560511e-16,-9.958208e-16,-3.6787499e-16
664000,664000,7.205999e-18,-2.8328114e-17,-1.8489792e-18,3.2077925e-15,-3.2952548e-15,-3.8581636e-16
680000,680000,-3.9861367e-17,1.5519637e-18,1.0956518e-18,-5.5190973e-15,2.186987e-15,2.6897372e-16
688000,688000,-3.203585e-17,4.312125e-18,3.1541112e-18,-7.452939e-16,1.0219428e-15,1.8905231e-16
696000,696000,-2.3451757e-17,-2.4328068e-18,-1.1561336e-18,9.98337e-16,-6.201883e-16,-2.4727245e-16
708000,708000,2.7308643e-17,4.3487113e-19,3.6299824e-18,1.2822321e-15,-3.0489809e-16,1.5941314e-16
716000,716000,-3.520867e-17,2.070779e-17,5.9951623e-18,-4.3885256e-15,2.1559072e-15,2.8134202e-16
728000,728000,2.8870913e-17,-4.835061e-18,-4.219293e-18,3.495872e-15,-1.7740682e-15,-6.7547103e-16
736000,736000,3.2170834e-17,1.6631121e-17,5.980565e-19,1.3092781e-15,1.4708605e-15,2.3126776e-16
748000,748000,-4.2004784e-17,-1.2577388e-17,-4.67913e-19,-4.644746e-15,-2.1587734e-15,-2.0424224e-16
760000,760000,-4.0955803e-17,-1.2819672e-17,3.123403e-19,-4.074506e-16,-4.3594486e-16,9.582819e-17
768000,768000,-1.7361995e-17,-4.4966336e-18,1.1314688e-18,2.1583056e-15,8.601685e-16,1.131704e-16
780000,780000,-1.5387283e-17,-1.5759235e-17,-2.9135698e-18,-4.4126986e-16,-1.2914114e-15,-3.7613086e-16
788000,788000,-2.2100858e-17,2.0915588e-17,5.067612e-18,-9.191881e-16,2.98742e-15,6.6780983e-16
800000,800000,1.7943495e-17,9.726179e-18,2.535696e-18,5.3423634e-15,-5.158326e-16,-2.2610142e-16
808000,808000,3.3720746e-17,1.6498422e-17,1.6012713e-18,1.9747574e-15,3.6863197e-16,-1.5400995e-16
820000,820000,-1.3657958e-17,-1.4275386e-18,8.5648075e-19,-1.5217747e-15,-1.2043243e-15,-6.015307e-17
828000,828000,1.8190516e-17,2.5120251e-17,2.510963e-18,2.0521717e-15,1.8245716e-15,7.944283e-17
840000,840000,-1.33207445e-17,-1.2318091e-17,1.4561181e-18,-1.5953385e-15,-3.0977388e-15,8.1950496e-18
848000,848000,-1.8624603e-17,-2.317522e-17,3.9563697e-18,-1.1052866e-15,-1.4186732e-15,2.2758698e-16
860000,860000,-1.2631466e-17,-2.0778246e-17,-2.6447497e-20,2.1982214e-16,-1.3206125e-15,-4.820975e-16
868000,868000,-2.1360775e-17,-2.1812701e-17,-1.1807909e-18,-7.113302e-16,-1.0363374e-16,-1.7801803e-16
880000,880000,-1.181491e-17,4.143625e-17,-1.1110881e-18,1.1405701e-16,3.3774816e-15,-1.5905296e-16
888000,888000,9.051762e-18,2.3305293e-18,4.703951e-18,2.313864e-15,-2.1477107e-15,5.140812e-16
900000,900000,-1.22623645e-17,2.5101315e-18,5.4080134e-18,-2.084227e-15,-3.1781978e-16,-3.6089884e-17
908000,908000,-2.2732037e-17,9.082889e-18,3.712662e-18,-1.5888546e-15,6.477302e-16,-1.3945832e-16
920000,920000,-3.9513697e-17,-1.4076807e-17,9.386672e-19,-9.797318e-16,-1.6548233e-15,-3.5322804e-16
928000,928000,-2.797884e-17,-1.6127377e-17,-4.579144e-19,4.830266e-16,-8.525195e-16,-1.5727005e-16
940000,940000,2.6052998e-17,-1.9819247e-17,4.119897e-18,4.179693e-15,1.5637331e-15,2.7054029e-16
948000,948000,4.520215e-17,3.2579117e-17,1.3462035e-18,2.8513005e-15,4.4018206e-15,-1.8167042e-16
960000,960000,-1.3629248e-17,1.8974013e-17,2.0613998e-18,-3.7731256e-15,-9.383108e-17,-5.077694e-17
968000,968000,2.61429e-18,1.3523612e-17,-5.8359376e-20,3.6103848e-16,-6.8721286e-16,-1.7674813e-16
980000,980000,-2.1672648e-17,-2.7102933e-18,2.067028e-18,-2.354963e-15,-4.3814156e-16,1.0338759e-16
988000,988000,-1.0318255e-17,-1.2572358e-17,-3.3404186e-18,5.8966855e-16,-1.1564134e-15,-4.6147927e-16
1000000,1000000,1.1427932e-17,-3.32775e-18,2.5961541e-18,1.6614673e-15,-8.572599e-17,4.0032328e-16
1008000,1008000,1.1709177e-07,-2.1823495e-13,1.277348e-18,-1.570126e-15,3.9255477e-16,-2.900158e-17
1020000,1020000,1.1709177e-07,-2.1821363e-13,-2.9133198e-19,-2.6029742e-15,1.2898984e-15,2.4019059e-17
1028000,1028000,1.1709177e-07,-2.1822243e-13,1.3257926e-18,-6.961493e-16,-2.81615e-16,1.1364337e-16
1040000,1040000,1.1709177e-07,-2.1821126e-13,1.3818759e-18,2.0441294e-15,-3.0743971e-16,1.2444597e-16
1048000,1048000,1.1709177e-07,-2.1824232e-13,2.1143446e-18,-1.9473927e-15,-2.2713087e-15,8.605958e-17
1060000,1060000,1.1709177e-07,-2.1822297e-13,7.640807e-18,5.801337e-16,7.132204e-16,5.592945e-16
1068000,1068000,1.1709177e-07,-2.1824071e-13,-3.0897533e-19,9.9151903e-17,-1.0665595e-15,-5.451622e-16
1080000,1080000,1.1709177e-07,-2.1823435e-13,-2.7938422e-18,1.3568269e-15,-1.8363628e-15,-3.6528404e-16
1088000,1088000,1.1709177e-07,-2.182527e-13,-3.8758122e-18,3.4078139e-15,-1.1116357e-15,-1.4802283e-16
1100000,1100000,1.1709177e-07,-2.1824826e-13,5.3061965e-18,7.5049216e-16,-2.2421072e-15,4.1113566e-16
1108000,1108000,1.1709177e-07,-2.1824766e-13,-2.921485e-18,4.935612e-15,1.3158446e-16,-5.4271974e-16
1120000,1120000,1.1709177e-07,-2.182462e-13,6.197513e-18,-4.949742e-16,-4.50267e-16,7.1656616e-16
1128000,1128000,1.1709177e-07,-2.1825636e-13,4.247277e-18,8.509132e-16,-1.0713897e-15,-1.2274585e-17
1140000,1140000,1.1709177e-07,-2.1821633e-13,-4.4354864e-18,-6.20516e-15,2.9517722e-15,-5.664336e-16
1148000,1148000,1.1709177e-07,-2.1821591e-13,1.5400056e-19,4.2104271e-16,5.9053867e-16,2.7359408e-16
1160000,1160000,1.1709177e-07,-2.1822312e-13,7.5518126e-19,2.7072626e-15,5.753919e-16,-5.581872e-17
1168000,1168000,1.1709177e-07,-2.1821573e-13,-2.1329302e-19,-6.848992e-16,4.3333655e-16,-1.2508452e-16
1180000,1180000,1.1709177e-07,-2.1821539e-13,-5.2005104e-19,-1.8220998e-15,5.1011797e-16,-1.5247534e-16
1188000,1188000,1.1709177e-07,-2.182156e-13,-4.489902e-19,-7.663379e-16,1.3957455e-16,3.6220345e-18
1200000,1200000,1.1709177e-07,-2.1822385e-13,1.9315567e-18,2.6402142e-15,-3.032773e-16,-1.6080423e-17
1208000,1208000,1.1709177e-07,-2.1823861e-13,-8.424936e-19,-5.8085047e-15,-1.527816e-15,-1.7324536e-16
1220000,1220000,1.1709177e-07,-2.1822412e-13,5.9121092e-18,3.7589827e-15,8.4522527e-16,4.8092816e-16
1228000,1228000,1.1709177e-07,-2.1824376e-13,4.6528512e-18,-1.1209725e-15,-1.1263955e-15,-8.587266e-18
1240000,1240000,1.1709177e-07,-2.1823194e-13,-1.1946786e-19,4.227875e-15,-1.1146181e-16,-1.4837336e-16
1248000,1248000,1.1709177e-07,-2.1821801e-13,3.7943614e-18,-1.5474445e-17,1.3221491e-15,2.5169436e-16
1260000,1260000,1.1709177e-07,-2.1824544e-13,-3.3245994e-18,7.7285467e-16,-1.9267776e-15,-5.9631866e-16
1268000,1268000,1.1709177e-07,-2.1825483e-13,-4.409465e-18,-1.7029461e-15,-1.4887972e-15,-1.8572375e-16
1280000,1280000,1.1709177e-07,-2.1824388e-13,-2.582481e-18,-2.0416827e-15,7.1242305e-16,-1.4220245e-16
1288000,1288000,1.1709177e-07,-2.182333e-13,-1.5893914e-18,1.1262272e-15,9.912057e-16,1.0669005e-16
1300000,1300000,1.1709177e-07,-2.1822092e-13,5.269658e-19,-2.2929356e-15,2.425393e-15,1.4356453e-16
1308000,1308000,1.1709177e-07,-2.1823996e-13,9.515829e-19,2.8987087e-16,-1.3918602e-15,1.1446147e-16
1320000,1320000,1.1709177e-07,-2.18231e-13,3.7560117e-18,1.1310295e-15,1.4894875e-15,1.462993e-16
1328000,1328000,1.1709177e-07,-2.1820321e-13,6.500903e-18,1.9050523e-15,2.9057846e-15,2.7639882e-16
1336000,1336000,1.1709177e-07,-2.1821115e-13,-1.0945122e-19,4.1004755e-15,-2.4265228e-16,-4.911049e-16
1348000,1348000,1.1709177e-07,-2.1820912e-13,6.1522346e-20,-6.542721e-15,8.428142e-16,-1.2398605e-16
1360000,1360000,1.1709177e-07,-2.1823167e-13,4.88433e-19,1.9551462e-15,-1.2327473e-15,1.2462791e-17
1368000,1368000,1.1709177e-07,-2.1820393e-13,3.4497086e-18,3.2039623e-15,2.0657567e-15,2.4443883e-16
1380000,1380000,1.1709177e-07,-2.1823124e-13,8.553778e-18,1.2083751e-15,-2.3468028e-15,3.662006e-16
1388000,1388000,1.1709177e-07,-2.1824808e-13,2.339014e-19,-3.3919208e-15,-1.675912e-15,-5.828502e-16
1400000,1400000,1.1709177e-07,-2.1820154e-13,1.7520852e-18,-2.4278344e-15,2.512286e-15,9.13046e-17
1408000,1408000,1.1709177e-07,-2.1821619e-13,4.6003803e-18,-9.802661e-16,-8.441666e-16,2.0446919e-16
1420000,1420000,1.1709177e-07,-2.1825139e-13,2.0548713e-18,6.8803555e-15,-1.828897e-15,-7.362648e-17
1428000,1428000,1.1709177e-07,-2.182454e-13,-3.0580092e-19,-2.6934204e-15,2.866622e-16,-2.4187523e-16
1440000,1440000,1.1709177e-07,-2.182147e-13,1.7026029e-18,3.254354e-15,9.260548e-16,6.0148776e-17
1448000,1448000,1.1709177e-07,-2.1823582e-13,-2.5478528e-18,-1.8966495e-15,-1.2264471e-15,-3.0646184e-16
1460000,1460000,1.1709177e-07,-2.1820345e-13,2.2761343e-19,3.0880795e-15,2.931113e-15,2.3396106e-16
1468000,1468000,1.1709177e-07,-2.1822023e-13,-1.3457497e-18,4.0173976e-15,-5.544433e-16,-6.603472e-17
1480000,1480000,1.1709177e-07,-2.1825304e-13,5.8564983e-18,-1.570405e-15,-2.55964e-15,4.919979e-16
1488000,1488000,1.1709177e-07,-2.1826373e-13,1.887776e-18,-1.4381599e-15,-1.4872128e-15,-2.1118122e-16
1500000,1500000,1.1709177e-07,-2.1822436e-13,-3.6400132e-18,5.7172797e-16,2.1227537e-15,-3.6602647e-16
1508000,1508000,1.1709177e-07,-2.1820848e-13,-2.7790574e-18,-2.1254515e-15,2.1024393e-15,-3.5659667e-17
1520000,1520000,1.1709177e-07,-2.182146e-13,-2.2039891e-19,1.6937577e-15,-1.0986648e-15,2.5574614e-16
1528000,1528000,1.1709177e-07,-2.182615e-13,2.222708e-20,3.8455554e-15,-3.821968e-15,8.020616e-17
1540000,1540000,1.1709177e-07,-2.1825204e-13,-2.5423253e-18,-2.7377126e-15,-4.431242e-16,-1.6377418e-16
1548000,1548000,1.1709177e-07,-2.1822592e-13,-2.1608127e-18,1.1240538e-15,2.1040874e-15,1.4220502e-17
1560000,1560000,1.1709177e-07,-2.1824689e-13,4.752327e-19,-1.6206337e-15,-1.5207223e-15,1.5253005e-16
1568000,1568000,1.1709177e-07,-2.1825015e-13,2.3911184e-18,1.6039317e-15,-4.2633148e-16,2.0127055e-16
1580000,1580000,1.1709177e-07,-2.1821707e-13,3.374067e-18,1.351198e-15,1.3945107e-15,8.43617e-17
1588000,1588000,1.1709177e-07,-2.182675e-13,2.8941695e-19,-1.7978054e-15,-3.5448087e-15,-2.0486654e-16
1600000,1600000,1.1709177e-07,-2.1825724e-13,6.9338018e-18,4.947858e-16,8.792399e-16,3.1368534e-16
1608000,1608000,1.1709177e-07,-2.1820894e-13,5.1608448e-18,-6.1019724e-15,3.99451e-15,-3.970761e-17
1620000,1620000,1.1709177e-07,-2.1823941e-13,6.100485e-19,-2.0534766e-15,-1.2349056e-15,-2.9845865e-16
1628000,1628000,1.1709177e-07,-2.1822488e-13,-9.127933e-19,3.25618e-17,9.376413e-16,-1.8254725e-16
1640000,1640000,1.1709177e-07,-2.182391e-13,-3.7358129e-19,2.2770645e-15,-6.977322e-16,-1.0489666e-16
1648000,1648000,1.1709177e-07,-2.1824675e-13,1.4195698e-18,2.5036392e-15,-9.435267e-16,1.0746483e-16
1660000,1660000,7.413515e-06,-1.3357614e-10,-2.5255568e-15,2.054696e-15,-1.5001966e-15,-3.6483403e-16
1668000,1668000,7.413515e-06,-1.3357611e-10,-2.515614e-15,-3.7032293e-15,2.0899771e-15,7.474482e-16
1680000,1680000,7.413515e-06,-1.3357611e-10,-2.5186648e-15,-8.6889106e-16,1.2818768e-15,-5.1248726e-17
1688000,1688000,7.413515e-06,-1.335761e-10,-2.5191941e-15,6.619775e-15,1.4570127e-15,-4.9175126e-17
1700000,1700000,7.413515e-06,-1.3357611e-10,-2.517708e-15,-6.058066e-15,-1.7343711e-15,5.29131e-17
1708000,1708000,7.413515e-06,-1.335761e-10,-2.5189796e-15,8.237421e-16,1.3290633e-15,-1.8577907e-16
1720000,1720000,7.413515e-06,-1.3357612e-10,-2.523301e-15,3.5231541e-16,-1.8025854e-15,-9.2602175e-17
1728000,1728000,7.413515e-06,-1.3357612e-10,-2.5204304e-15,4.6104965e-15,-2.1804386e-16,2.4808293e-16
1740000,1740000,7.413515e-06,-1.335761e-10,-2.5218754e-15,-9.114263e-16,1.4423487e-15,-2.0206432e-16
1748000,1748000,7.413515e-06,-1.3357611e-10,-2.5186863e-15,2.7953595e-15,-6.9749913e-16,1.9763632e-16
1760000,1760000,7.413515e-06,-1.335761e-10,-2.5178832e-15,-2.8543392e-15,1.2119394e-15,1.149392e-16
1768000,1768000,7.413515e-06,-1.3357611e-10,-2.5192018e-15,-1.4085247e-15,-4.8158625e-16,-3.80126e-17
1780000,1780000,7.413515e-06,-1.3357612e-10,-2.5188968e-15,-8.370013e-16,-1.5147803e-15,-3.545383e-16
1788000,1788000,7.413515e-06,-1.3357614e-10,-2.5230854e-15,-3.3039388e-15,-2.0830556e-15,-3.4429443e-16
1800000,1800000,7.413515e-06,-1.3357612e-10,-2.5164485e-15,2.0916746e-15,1.1731226e-15,3.4796905e-16
1808000,1808000,7.413515e-06,-1.3357608e-10,-2.517745e-15,1.5527958e-15,2.9731174e-15,-2.6253986e-17
1820000,1820000,7.413515e-06,-1.3357608e-10,-2.5187283e-15,-6.75185e-16,5.5932735e-16,1.1542088e-16
1828000,1828000,7.413515e-06,-1.3357611e-10,-2.5181165e-15,2.6341984e-16,-1.5349492e-15,3.0224465e-17
1840000,1840000,7.413515e-06,-1.3357611e-10,-2.5174395e-15,-3.444504e-16,-1.6125464e-15,7.873036e-17
1848000,1848000,7.413515e-06,-1.3357611e-10,-2.5215078e-15,-4.6207058e-15,-3.1977548e-16,-3.247888e-16
1860000,1860000,7.413515e-06,-1.3357611e-10,-2.5188723e-15,3.8115127e-16,-3.6161e-16,6.705479e-17
1868000,1868000,7.413515e-06,-1.3357611e-10,-2.5223222e-15,3.732554e-15,-3.739356e-16,-3.0680857e-16
1880000,1880000,7.413515e-06,-1.3357612e-10,-2.518649e-15,-1.6175308e-15,9.905977e-19,4.1917805e-16
1888000,1888000,7.413515e-06,-1.3357614e-10,-2.518685e-15,1.8732227e-15,-1.4184005e-15,7.8921e-17
1900000,1900000,7.413515e-06,-1.335761e-10,-2.5218528e-15,-5.706458e-16,3.4571438e-15,-2.2271585e-16
1908000,1908000,7.413515e-06,-1.3357607e-10,-2.5227466e-15,-1.7898912e-15,2.2213062e-15,-1.10538554e-16
1920000,1920000,7.413515e-06,-1.3357611e-10,-2.5198633e-15,-9.7009916e-17,-2.634137e-15,4.892148e-17
1928000,1928000,7.413515e-06,-1.3357615e-10,-2.5195228e-15,-1.8733684e-15,-3.301731e-15,3.0943705e-17
1940000,1940000,7.413515e-06,-1.3357608e-10,-2.5239007e-15,-1.173194e-15,3.684917e-15,-1.9971637e-16
1948000,1948000,7.413515e-06,-1.3357612e-10,-2.5186052e-15,6.8871063e-15,-3.2814596e-15,4.2505993e-16
1960000,1960000,7.413515e-06,-1.335761e-10,-2.5208003e-15,-3.9881466e-15,3.245012e-15,-1.5068551e-16
1968000,1968000,7.413515e-06,-1.335761e-10,-2.5178976e-15,-3.1689715e-15,2.2486692e-16,2.0778553e-16
1980000,1980000,7.413515e-06,-1.3357608e-10,-2.5178995e-15,2.2562349e-15,1.0987705e-15,6.283574e-18
1988000,1988000,7.413515e-06,-1.335761e-10,-2.5225234e-15,9.508347e-17,-1.0399533e-15,-3.821778e-16
2000000,2000000,7.413515e-06,-1.3357611e-10,-2.5177656e-15,1.2019992e-15,9.594615e-16,3.3555006e-16
2008000,2008000,7.413515e-06,-1.335761e-10,-2.5200935e-15,1.3969076e-15,1.4637393e-15,-1.1203693e-16
2020000,2020000,7.413515e-06,-1.335761e-10,-2.525815e-15,-1.5024399e-15,2.662531e-16,-4.538785e-16
2028000,2028000,1.4482911e-05,-4.375163e-10,-9.834736e-15,8.536699e-16,-1.3927703e-15,5.683795e-17
2040000,2040000,1.4482911e-05,-4.375163e-10,-9.82524e-15,-3.0977143e-15,2.239209e-16,6.9202957e-16
2048000,2048000,1.4482911e-05,-4.375163e-10,-9.8256635e-15,5.881186e-16,9.62068e-16,9.1084596e-17
2060000,2060000,1.4482911e-05,-4.375163e-10,-9.8307965e-15,2.8126457e-15,3.4607638e-16,-2.3070287e-16
2068000,2068000,1.4482911e-05,-4.3751627e-10,-9.82771e-15,2.6315315e-15,2.2049733e-15,2.0425963e-16
2080000,2080000,1.4482911e-05,-4.3751636e-10,-9.83357e-15,-3.886171e-15,-4.5630465e-15,-4.626348e-16
2088000,2088000,1.4482911e-05,-4.375163e-10,-9.833448e-15,1.1088081e-15,3.994594e-15,-8.458734e-17
2100000,2100000,1.4482911e-05,-4.3751633e-10,-9.833326e-15,2.9112268e-15,-3.1328284e-15,-7.441369e-17
2108000,2108000,1.4482911e-05,-4.3751633e-10,-9.8266156e-15,-1.86473e-15,1.7086834e-16,5.632422e-16
2120000,2120000,1.4482911e-05,-4.3751627e-10,-9.829888e-15,-3.301344e-15,3.0752842e-15,1.8041749e-17
2128000,2128000,1.4482911e-05,-4.3751627e-10,-9.823984e-15,1.3672425e-16,1.8303586e-15,4.4511544e-16
2140000,2140000,1.4482911e-05,-4.375163e-10,-9.8257e-15,2.190198e-15,-1.7561368e-15,1.387103e-16
2148000,2148000,1.4482911e-05,-4.375163e-10,-9.827721e-15,-2.117136e-15,-6.0510996e-16,-2.1694666e-16
2160000,2160000,1.6995778e-05,-5.9447514e-10,-1.3760029e-14,3.1355838e-15,1.3693288e-16,-2.4607985e-16
2168000,2168000,1.6995778e-05,-5.9447514e-10,-1.3755955e-14,-2.9235804e-15,-4.2689614e-16,1.9302695e-16
2180000,2180000,1.6995778e-05,-5.9447514e-10,-1.3753904e-14,-2.28478e-15,1.6720147e-15,2.0061463e-16
2188000,2188000,1.6995778e-05,-5.9447514e-10,-1.3750751e-14,1.1149732e-15,-4.976179e-16,4.0796701e-16
2200000,2200000,1.6995778e-05,-5.9447514e-10,-1.3753131e-14,1.843871e-15,2.6938242e-16,-3.2244114e-16
2208000,2208000,1.6995778e-05,-5.9447514e-10,-1.3756444e-14,3.0054635e-15,-3.4376445e-15,-3.554209e-16
2220000,2220000,1.6995778e-05,-5.9447514e-10,-1.3756561e-14,-3.763403e-15,1.5479179e-15,1.2005948e-16
2228000,2228000,1.6995778e-05,-5.9447514e-10,-1.3754835e-14,-2.1178433e-15,-6.418715e-16,1.1548749e-16
2240000,2240000,1.6995778e-05,-5.9447514e-10,-1.37585035e-14,9.858763e-16,-7.10244e-16,-1.4056088e-16
2248000,2248000,1.6995778e-05,-5.9447514e-10,-1.3759182e-14,-6.563825e-16,-4.0373717e-16,-1.1768582e-16
2260000,2260000,1.6995778e-05,-5.9447514e-10,-1.3755103e-14,1.7466883e-15,-7.0487964e-16,2.7935636e-16
2268000,2268000,1.6995778e-05,-5.9447514e-10,-1.3755501e-14,1.9151015e-15,6.72536e-16,5.591738e-17
2280000,2280000,1.6995778e-05,-5.9447514e-10,-1.3755864e-14,-2.3762489e-15,-9.141533e-16,-5.15104e-17
2288000,2288000,1.6995778e-05,-5.9447514e-10,-1.3758988e-14,-5.821038e-16,9.719472e-16,-2.874346e-16
2300000,2300000,1.6995778e-05,-5.9447514e-10,-1.3753461e-14,2.8592167e-15,1.0776984e-15,5.313475e-16
2308000,2308000,1.6995778e-05,-5.9447514e-10,-1.3758902e-14,-5.9655747e-16,3.9005613e-16,-3.6030447e-16
2320000,2320000,1.6995778e-05,-5.9447514e-10,-1.3756877e-14,-1.0813384e-15,1.3225202e-15,2.4025073e-16
2328000,2328000,1.6995778e-05,-5.944751e-10,-1.3754399e-14,-1.4027511e-15,3.753347e-15,2.5237765e-16
2340000,2340000,1.6995778e-05,-5.9447514e-10,-1.3757006e-14,-1.3391601e-16,-8.2977846e-16,-2.5762367e-16
2348000,2348000,1.6995778e-05,-5.9447514e-10,-1.3753409e-14,2.038321e-15,-3.3819698e-15,3.1656795e-16
2360000,2360000,1.6995778e-05,-5.9447514e-10,-1.3751215e-14,1.6219193e-15,-1.688771e-15,-2.1802684e-17
2368000,2368000,1.6995778e-05,-5.9447514e-10,-1.3754136e-14,-3.7898723e-15,7.473955e-16,-2.5972563e-16
2380000,2380000,1.6995778e-05,-5.9447514e-10,-1.3753918e-14,4.9184793e-15,2.632807e-16,4.3026604e-17
2388000,2388000,4.156406e-06,-2.4206126e-10,-3.2467467e-14,-3.3781872e-15,8.942815e-16,4.0848458e-16
2400000,2400000,4.156406e-06,-2.420613e-10,-3.246883e-14,-4.8445766e-15,7.237346e-17,-3.0216468e-17
2408000,2408000,4.156406e-06,-2.420613e-10,-3.2471716e-14,5.2523094e-16,-6.2337453e-16,-2.5033124e-16
2420000,2420000,4.156406e-06,-2.420613e-10,-3.246693e-14,2.6892017e-15,4.581257e-16,1.4780935e-16
2428000,2428000,4.156406e-06,-2.420613e-10,-3.2474017e-14,4.5829954e-15,-8.898784e-16,-5.464664e-16
2440000,2440000,4.156406e-06,-2.4206132e-10,-3.2476036e-14,-7.0654593e-15,-1.5162363e-15,-8.305415e-17
2448000,2448000,4.156406e-06,-2.4206134e-10,-3.2476998e-14,6.265457e-15,-1.839787e-15,-1.7139476e-16
2460000,2460000,4.156406e-06,-2.4206132e-10,-3.2475487e-14,-2.8289202e-15,1.9222293e-15,2.740283e-16
2468000,2468000,4.156406e-06,-2.4206132e-10,-3.2476324e-14,-3.4824171e-16,8.5378804e-17,-1.388128e-17
2480000,2480000,4.156406e-06,-2.420613e-10,-3.247749e-14,-3.0941093e-15,3.3574023e-15,-1.4027337e-17
2488000,2488000,4.156406e-06,-2.4206126e-10,-3.247003e-14,-5.525735e-16,1.4449535e-15,5.772912e-16
2500000,2500000,4.156406e-06,-2.420613e-10,-3.2467498e-14,-5.050699e-16,4.2087288e-16,2.8842838e-16
2508000,2508000,4.156406e-06,-2.420613e-10,-3.2474643e-14,-1.1064872e-15,-4.131849e-16,-5.308872e-16
2520000,2520000,4.156406e-06,-2.4206132e-10,-3.247447e-14,5.252846e-15,-8.271463e-16,-1.5499308e-16
2528000,2528000,4.156406e-06,-2.4206132e-10,-3.2476348e-14,-3.7413123e-15,-9.088935e-16,-1.0674083e-16
2540000,2540000,4.888336e-06,-4.0293558e-06,-9.847878e-07,-4.1023696e-16,-7.0323725e-16,2.8939145e-16
2548000,2548000,4.888336e-06,-4.0293558e-06,-9.847878e-07,-1.985606e-15,-1.2897256e-15,3.577042e-16
2560000,2560000,4.888336e-06,-4.0293558e-06,-9.847878e-07,2.1255527e-15,1.4548761e-16,-4.3508768e-16
2568000,2568000,4.888336e-06,-4.0293558e-06,-9.847878e-07,1.1872714e-15,2.3475605e-16,6.2079505e-16
2580000,2580000,4.888336e-06,-4.0293558e-06,-9.847878e-07,4.829791e-15,-5.9674106e-16,-3.4619817e-16
2588000,2588000,4.888336e-06,-4.0293558e-06,-9.847878e-07,-3.467226e-15,2.822914e-16,-1.2606807e-16
2600000,2600000,4.888336e-06,-4.0293558e-06,-9.847878e-07,8.4484136e-16,3.85457e-15,-1.2993264e-16
2608000,2608000,4.888336e-06,-4.0293558e-06,-9.847878e-07,-2.92523e-15,-3.6619415e-16,4.7786984e-16
2620000,2620000,4.888336e-06,-4.0293558e-06,-9.847878e-07,-7.86399e-16,2.2731347e-16,-3.9555195e-16
2628000,2628000,4.888336e-06,-4.0293558e-06,-9.847878e-07,1.5961737e-15,2.2906018e-15,3.4104305e-16
2640000,2640000,4.888336e-06,-4.0293558e-06,-9.847878e-07,-5.339518e-16,-2.5834763e-15,-2.0481804e-17
2648000,2648000,4.888336e-06,-4.0293558e-06,-9.847878e-07,-1.2467498e-15,-7.2659534e-16,6.4835347e-18
2660000,2660000,2.7575634e-06,-1.3915998e-06,-3.1065297e-06,2.4428055e-15,-1.6455606e-16,4.8807686e-17
2668000,2668000,2.7575634e-06,-1.3915998e-06,-3.1065297e-06,-2.040084e-15,3.7907604e-15,6.066631e-17
2680000,2680000,2.7575634e-06,-1.3915998e-06,-3.1065297e-06,-2.1522283e-15,-2.1754144e-15,8.651434e-17
2688000,2688000,2.7575634e-06,-1.3915998e-06,-3.1065297e-06,3.9356183e-15,-2.9577878e-15,-6.1914556e-16
2700000,2700000,2.7575634e-06,-1.3915998e-06,-3.1065297e-06,-6.2696383e-16,4.3849905e-15,3.4357988e-16
2708000,2708000,2.7575634e-06,-1.3915998e-06,-3.1065297e-06,-3.786921e-15,5.8757066e-16,4.021679e-16
2720000,2720000,2.7575634e-06,-1.3915998e-06,-3.1065297e-06,4.2537664e-15,-1.3429991e-15,2.6987416e-17
2728000,2728000,2.7575634e-06,-1.3915998e-06,-3.1065297e-06,-3.7253345e-16,4.090217e-15,-4.78796e-16
2740000,2740000,2.7575634e-06,-1.3915998e-06,-3.1065297e-06,-9.9173264e-17,1.1147734e-15,3.0776638e-16
2748000,2748000,2.7575634e-06,-1.3915998e-06,-3.1065297e-06,-1.0635455e-15,-2.3209901e-15,-1.6251901e-16
2760000,2760000,2.7575634e-06,-1.3915998e-06,-3.1065297e-06,1.2648955e-16,1.365159e-15,2.9948772e-16
2768000,2768000,2.7575634e-06,-1.3915998e-06,-3.1065297e-06,5.262032e-15,-1.1796829e-15,1.8573204e-16
2780000,2780000,-2.0611317e-06,-2.597233e-06,-5.8540745e-06,-1.3840802e-15,-1.6915341e-15,-7.279043e-17
2788000,2788000,-2.0611317e-06,-2.597233e-06,-5.8540745e-06,-4.1309623e-15,2.4624675e-15,3.4741308e-16
2800000,2800000,-2.0611317e-06,-2.597233e-06,-5.8540745e-06,1.6519114e-15,-2.5459324e-15,-1.7092922e-16
2808000,2808000,-2.0611317e-06,-2.597233e-06,-5.8540745e-06,-1.5170166e-15,-1.1421099e-15,-2.9682766e-16
2820000,2820000,-2.0611317e-06,-2.597233e-06,-5.8540745e-06,5.114545e-16,1.4136339e-15,-9.04691e-17
2824000,2824000,-2.0611317e-06,-2.597233e-06,-5.8540745e-06,-1.6483192e-16,9.251355e-16,-4.615234e-16
2840000,2840000,-2.0611317e-06,-2.597233e-06,-5.8540745e-06,-3.7816036e-15,1.6380453e-15,5.2505026e-16
2848000,2848000,-2.0611317e-06,-2.597233e-06,-5.8540745e-06,-2.9782557e-15,1.0313121e-15,-1.09560304e-16
2860000,2860000,-2.0611317e-06,-2.597233e-06,-5.8540745e-06,6.8854347e-15,1.0129942e-15,5.029279e-16
2868000,2868000,-2.0611317e-06,-2.597233e-06,-5.8540745e-06,1.01349186e-16,-3.4203281e-15,-2.706255e-16
2880000,2880000,-2.0611317e-06,-2.597233e-06,-5.8540745e-06,6.8749313e-16,1.4361304e-15,2.284489e-16
2888000,2888000,-2.0611317e-06,-2.597233e-06,-5.8540745e-06,-1.866097e-15,-2.7270713e-15,-5.673228e-16
2900000,2900000,-2.0611317e-06,-2.597233e-06,-5.8540745e-06,2.9256825e-15,3.3022307e-16,3.202601e-16
2908000,2908000,2.4851084e-05,5.4242473e-06,-5.8602786e-06,1.9714793e-15,-1.7247382e-15,-2.4481969e-17
2920000,2920000,2.4851084e-05,5.4242473e-06,-5.8602786e-06,1.5305483e-16,4.500731e-15,-1.1719397e-16
2928000,2928000,2.4851084e-05,5.4242473e-06,-5.8602786e-06,-1.132026e-15,1.378932e-15,9.5254096e-17
2940000,2940000,2.4851084e-05,5.4242473e-06,-5.8602786e-06,1.3198817e-16,3.027678e-16,-5.698906e-17
2948000,2948000,2.4851084e-05,5.4242473e-06,-5.8602786e-06,-1.8763863e-15,8.2552064e-16,-3.563419e-16
2960000,2960000,2.4851084e-05,5.4242473e-06,-5.8602786e-06,4.5384343e-17,-1.1015265e-15,1.4328908e-16
2968000,2968000,2.4851084e-05,5.4242473e-06,-5.8602786e-06,3.2242567e-15,-1.8634725e-15,-1.6241461e-16
2980000,2980000,2.4851084e-05,5.4242473e-06,-5.8602786e-06,-3.8902222e-16,1.3597541e-15,-4.4930577e-16
2988000,2988000,2.4851084e-05,5.4242473e-06,-5.8602786e-06,1.5431254e-15,2.6755055e-16,5.292461e-16
3000000,3000000,2.4851084e-05,5.4242473e-06,-5.8602786e-06,-1.3781957e-15,1.0268055e-15,1.5133394e-16
3008000,3008000,2.4851084e-05,5.4242473e-06,-5.8602786e-06,-1.2639159e-15,1.8205228e-15,-1.1448646e-16
3020000,3020000,2.4851084e-05,5.4242473e-06,-5.8602786e-06,7.5494776e-17,-3.4393879e-15,-2.927397e-16
3028000,3028000,4.094548e-06,4.613614e-05,-4.849269e-06,1.5727989e-15,1.8532928e-15,2.955216e-16
3040000,3040000,4.094548e-06,4.613614e-05,-4.849269e-06,-6.612655e-16,-3.4275696e-15,-4.985727e-16
3048000,3048000,4.094548e-06,4.613614e-05,-4.849269e-06,-1.4451311e-16,-2.8699615e-15,-6.418018e-16
3060000,3060000,4.094548e-06,4.613614e-05,-4.849269e-06,2.8619655e-16,1.1645259e-15,2.9525104e-16
3068000,3068000,4.094548e-06,4.613614e-05,-4.849269e-06,1.9667518e-15,-5.4205937e-16,4.2792173e-20
3080000,3080000,4.094548e-06,4.613614e-05,-4.849269e-06,-3.6881123e-15,2.9448977e-15,3.6221564e-17
3088000,3088000,4.094548e-06,4.613614e-05,-4.849269e-06,-1.0239273e-15,2.6682775e-15,4.368981e-16
3100000,3100000,4.094548e-06,4.613614e-05,-4.849269e-06,-3.0349826e-16,-2.1671192e-15,-1.8711552e-17
3108000,3108000,4.094548e-06,4.613614e-05,-4.849269e-06,3.5525815e-15,-6.6181125e-16,-2.4285912e-16
3120000,3120000,4.094548e-06,4.613614e-05,-4.849269e-06,-5.799875e-16,-1.8099104e-16,6.3409786e-17
3128000,3128000,4.094548e-06,4.613614e-05,-4.849269e-06,-1.3115417e-15,4.1265492e-16,-2.546875e-16
3140000,3140000,4.094548e-06,4.613614e-05,-4.849269e-06,-1.415205e-15,-2.325694e-15,2.0009626e-17
3148000,3148000,4.094548e-06,4.613614e-05,-4.849269e-06,2.5700043e-15,-9.577831e-18,3.4463235e-16
3160000,3160000,2.7748445e-06,9.701391e-06,-4.850235e-06,6.8497246e-16,1.0298066e-15,5.596965e-17
3168000,3168000,2.7748445e-06,9.701391e-06,-4.850235e-06,-1.569544e-15,-2.4383175e-15,-1.5464331e-16
3180000,3180000,2.7748445e-06,9.701391e-06,-4.850235e-06,-1.5420113e-15,1.3462413e-16,1.1459496e-16
3188000,3188000,2.7748445e-06,9.701391e-06,-4.850235e-06,2.654313e-16,-6.552467e-17,-1.63953e-16
3200000,3200000,2.7748445e-06,9.701391e-06,-4.850235e-06,-5.1172e-16,8.230956e-16,-1.952833e-17
3208000,3208000,2.7748445e-06,9.701391e-06,-4.850235e-06,2.9205552e-15,1.4331459e-15,1.0634816e-16
3220000,3220000,2.7748445e-06,9.701391e-06,-4.850235e-06,-8.115853e-16,-5.0318617e-16,2.8776976e-16
3228000,3228000,2.7748445e-06,9.701391e-06,-4.850235e-06,4.2779594e-15,4.135333e-16,8.460049e-17
3240000,3240000,2.7748445e-06,9.701391e-06,-4.850235e-06,-2.7048746e-15,9.71615e-16,1.1629868e-16
3248000,3248000,2.7748445e-06,9.701391e-06,-4.850235e-06,-3.2208447e-15,-1.9937455e-15,-1.0487826e-16
3260000,3260000,2.7748445e-06,9.701391e-06,-4.850235e-06,-2.4971865e-16,2.4558246e-15,2.524633e-16
3268000,3268000,2.7748445e-06,9.701391e-06,-4.850235e-06,1.5518035e-16,-2.4346693e-17,6.1577456e-17
3280000,3280000,2.7748445e-06,9.701391e-06,-4.850235e-06,1.8674122e-15,7.5947303e-16,3.5826992e-17
3288000,3288000,-3.2475138e-05,4.4813287e-06,-4.1163626e-06,-2.4280324e-15,-2.25865e-15,1.9024187e-16
3296000,3296000,-3.2475138e-05,4.4813287e-06,-4.1163626e-06,-1.1902876e-15,-2.3982937e-15,-2.4539476e-16
3308000,3308000,-3.2475138e-05,4.4813287e-06,-4.1163626e-06,1.1292238e-15,-1.8538097e-15,-7.343996e-17
3320000,3320000,-3.2475138e-05,4.4813287e-06,-4.1163626e-06,-2.705335e-16,2.3790466e-15,2.0635859e-16
3328000,3328000,-3.2475138e-05,4.4813287e-06,-4.1163626e-06,5.7757655e-18,2.913889e-15,5.752775e-17
3340000,3340000,-3.2475138e-05,4.4813287e-06,-4.1163626e-06,-2.3934307e-15,-5.514239e-17,1.5094807e-16
3348000,3348000,-3.2475138e-05,4.4813287e-06,-4.1163626e-06,4.8763187e-15,-9.947666e-17,-1.2225445e-16
3360000,3360000,-3.2475138e-05,4.4813287e-06,-4.1163626e-06,-6.142405e-16,9.328481e-16,-6.805959e-17
3368000,3368000,-3.2475138e-05,4.4813287e-06,-4.1163626e-06,-2.1637167e-15,-8.3299645e-16,-4.0880597e-16
3380000,3380000,-3.2475138e-05,4.4813287e-06,-4.1163626e-06,1.6353918e-16,1.6664865e-15,-1.0740081e-17
3388000,3388000,-3.2475138e-05,4.4813287e-06,-4.1163626e-06,1.0628415e-15,-2.5486239e-15,-6.995672e-17
3400000,3400000,-3.2475138e-05,4.4813287e-06,-4.1163626e-06,-4.3463852e-16,4.3333765e-15,1.676471e-16
3408000,3408000,-1.8809953e-05,8.291624e-05,-3.6075332e-06,4.3007327e-15,-8.650665e-16,-1.2192952e-16
3420000,3420000,-1.8809953e-05,8.291624e-05,-3.6075332e-06,-4.4127854e-15,9.242537e-16,-6.0159556e-17
3428000,3428000,-1.8809953e-05,8.291624e-05,-3.6075332e-06,1.6007402e-15,-3.0084042e-15,2.5399485e-16
3440000,3440000,-1.8809953e-05,8.291624e-05,-3.6075332e-06,-1.4488778e-15,-2.6385923e-16,-2.4001425e-16
3448000,3448000,-1.8809953e-05,8.291624e-05,-3.6075332e-06,4.0678876e-15,1.0209848e-15,2.9581877e-18
3460000,3460000,-1.8809953e-05,8.291624e-05,-3.6075332e-06,-3.215121e-15,-3.612758e-16,-6.810744e-17
3468000,3468000,-1.8809953e-05,8.291624e-05,-3.6075332e-06,-6.364668e-16,-9.953793e-16,-1.3051344e-16
3480000,3480000,-1.8809953e-05,8.291624e-05,-3.6075332e-06,-1.0072922e-15,1.3835079e-15,2.5918335e-16
3488000,3488000,-1.8809953e-05,8.291624e-05,-3.6075332e-06,-4.3558737e-15,-1.3226916e-15,1.03110386e-16
3500000,3500000,-1.8809953e-05,8.291624e-05,-3.6075332e-06,1.8389462e-15,7.5024837e-16,-5.735161e-16
3508000,3508000,-1.8809953e-05,8.291624e-05,-3.6075332e-06,1.8222919e-15,-5.2835427e-17,-8.088831e-17
3520000,3520000,-1.8809953e-05,8.291624e-05,-3.6075332e-06,2.1788453e-15,1.9458894e-15,-1.4692546e-17
3528000,3528000,-1.8809953e-05,8.291624e-05,-3.6075332e-06,-1.9743597e-16,1.884623e-15,1.7613922e-16
3540000,3540000,-4.174183e-05,2.895321e-05,-3.5705864e-06,-1.6221204e-15,-4.3813796e-15,-8.3688536e-17
3548000,3548000,-4.174183e-05,2.895321e-05,-3.5705864e-06,-7.9920714e-16,1.0036169e-15,-7.684384e-17
3560000,3560000,-4.174183e-05,2.895321e-05,-3.5705864e-06,6.6408045e-16,4.359829e-16,2.7141974e-16
3568000,3568000,-4.174183e-05,2.895321e-05,-3.5705864e-06,-1.252842e-15,-2.8925726e-15,9.5715133e-17
3580000,3580000,-4.174183e-05,2.895321e-05,-3.5705864e-06,1.1365485e-15,1.1470969e-15,-5.885723e-17
3588000,3588000,-4.174183e-05,2.895321e-05,-3.5705864e-06,-2.9390142e-15,4.582952e-16,-4.970415e-17
3600000,3600000,-4.174183e-05,2.895321e-05,-3.5705864e-06,4.5747877e-15,2.251192e-16,1.8738711e-16
3608000,3608000,-4.174183e-05,2.895321e-05,-3.5705864e-06,4.1364367e-16,2.3246672e-17,-6.5626927e-16
3620000,3620000,-4.174183e-05,2.895321e-05,-3.5705864e-06,-1.3479966e-16,2.3862506e-16,-6.922916e-17
3628000,3628000,-4.174183e-05,2.895321e-05,-3.5705864e-06,-1.4750527e-15,8.7749204e-16,-1.5323807e-16
3640000,3640000,-4.174183e-05,2.895321e-05,-3.5705864e-06,-6.7725816e-16,2.8311912e-16,2.9000762e-16
3648000,3648000,-4.174183e-05,2.895321e-05,-3.5705864e-06,-1.8335216e-15,-4.0013836e-16,1.04264574e-16
3660000,3660000,-4.6474077e-05,6.820378e-05,-3.1686484e-06,3.416415e-15,9.366545e-16,3.2960183e-16
3664000,3664000,-4.6474077e-05,6.820378e-05,-3.1686484e-06,3.3521788e-15,3.6681206e-16,6.44117e-17
3680000,3680000,-4.6474077e-05,6.820378e-05,-3.1686484e-06,2.2374352e-15,-1.1116082e-15,-2.5587142e-16
3688000,3688000,-4.6474077e-05,6.820378e-05,-3.1686484e-06,-1.5803831e-15,1.7076826e-15,-2.6013335e-16
3700000,3700000,-4.6474077e-05,6.820378e-05,-3.1686484e-06,3.0948619e-15,3.1603583e-16,2.9740375e-16
3708000,3708000,-4.6474077e-05,6.820378e-05,-3.1686484e-06,-3.3677882e-15,-7.896827e-16,-8.182786e-16
3720000,3720000,-4.6474077e-05,6.820378e-05,-3.1686484e-06,6.08619e-16,-1.204028e-15,3.0870155e-16
3728000,3728000,-4.6474077e-05,6.820378e-05,-3.1686484e-06,2.8501945e-15,1.1404651e-15,1.4887037e-17
3740000,3740000,-4.6474077e-05,6.820378e-05,-3.1686484e-06,2.8573814e-15,-1.3980956e-16,3.858588e-17
3748000,3748000,-4.6474077e-05,6.820378e-05,-3.1686484e-06,1.2083502e-15,7.638989e-16,-3.3726806e-16
3760000,3760000,-4.6474077e-05,6.820378e-05,-3.1686484e-06,1.1761279e-15,-1.9485957e-15,7.124417e-16
3768000,3768000,-4.6474077e-05,6.820378e-05,-3.1686484e-06,-4.3606154e-15,9.841009e-16,-6.05593e-16
3780000,3780000,-5.6489687e-05,5.4181266e-05,-2.821466e-06,-3.3119761e-15,2.1161075e-15,1.9429696e-16
3788000,3788000,-5.6489687e-05,5.4181266e-05,-2.821466e-06,1.1021834e-15,-1.005056e-15,1.1983328e-16
3800000,3800000,-5.6489687e-05,5.4181266e-05,-2.821466e-06,6.766489e-16,-1.0013775e-15,1.0024695e-16
3808000,3808000,-5.6489687e-05,5.4181266e-05,-2.821466e-06,-2.9804868e-15,7.3034294e-16,-2.9630285e-17
3820000,3820000,-5.6489687e-05,5.4181266e-05,-2.821466e-06,3.5977364e-15,1.8598101e-16,-1.621503e-16
3824000,3824000,-5.6489687e-05,5.4181266e-05,-2.821466e-06,3.3377958e-15,4.78612e-16,6.8439154e-18
3840000,3840000,-5.6489687e-05,5.4181266e-05,-2.821466e-06,2.3050456e-16,-1.2443515e-15,9.0014966e-17
3848000,3848000,-5.6489687e-05,5.4181266e-05,-2.821466e-06,-3.6347217e-15,2.8570104e-15,-1.01313214e-16
3860000,3860000,-5.6489687e-05,5.4181266e-05,-2.821466e-06,-1.2154578e-15,-5.5102167e-16,-2.2187714e-16
3868000,3868000,-5.6489687e-05,5.4181266e-05,-2.821466e-06,-2.5310429e-15,1.0785301e-15,-2.9071206e-16
3880000,3880000,-5.6489687e-05,5.4181266e-05,-2.821466e-06,2.3013265e-15,-2.392889e-15,2.8514692e-16
3888000,3888000,-5.6489687e-05,5.4181266e-05,-2.821466e-06,-1.6148021e-16,-5.6586523e-16,-1.05304056e-16
3900000,3900000,-5.6489687e-05,5.4181266e-05,-2.821466e-06,-1.8670815e-15,-3.076765e-15,1.0595912e-16
3908000,3908000,-5.963514e-05,7.782867e-05,-2.8326222e-06,-4.293585e-15,1.7249794e-15,-2.9216906e-17
3920000,3920000,-5.963514e-05,7.782867e-05,-2.8326222e-06,1.921911e-15,2.2203211e-15,2.6252127e-16
3928000,3928000,-5.963514e-05,7.782867e-05,-2.8326222e-06,5.7368694e-15,2.26204e-15,1.9396413e-16
3940000,3940000,-5.963514e-05,7.782867e-05,-2.8326222e-06,1.4927797e-15,8.1588324e-17,3.1298058e-16
3948000,3948000,-5.963514e-05,7.782867e-05,-2.8326222e-06,-5.719058e-15,6.316195e-16,-5.655124e-17
3960000,3960000,-5.963514e-05,7.782867e-05,-2.8326222e-06,3.722225e-16,-4.580949e-16,-2.190066e-16
3968000,3968000,-5.963514e-05,7.782867e-05,-2.8326222e-06,4.428433e-15,1.9565714e-15,1.1193171e-16
3980000,3980000,-5.963514e-05,7.782867e-05,-2.8326222e-06,2.281732e-15,-1.824596e-15,-3.000731e-16
3988000,3988000,-5.963514e-05,7.782867e-05,-2.8326222e-06,-4.065583e-15,-7.5861785e-16,1.5515932e-16
4000000,4000000,-5.963514e-05,7.782867e-05,-2.8326222e-06,8.936049e-16,2.4297185e-15,3.4496674e-16
4008000,4008000,-5.963514e-05,7.782867e-05,-2.8326222e-06,-1.3693509e-15,7.1895627e-16,-5.2947447e-16
4020000,4020000,-5.963514e-05,7.782867e-05,-2.8326222e-06,1.5223155e-15,-1.962653e-15,-4.2636204e-17
4028000,4028000,-0.00013168323,1.6918451e-05,-2.4015646e-06,2.6887335e-16,-2.2731876e-15,2.62266e-16
4040000,4040000,-0.00013168323,1.6918451e-05,-2.4015646e-06,-2.3642091e-15,3.0817096e-15,3.9456756e-16
4044000,4044000,-0.00013168323,1.6918451e-05,-2.4015646e-06,-1.3338416e-15,1.0427367e-15,1.1985991e-16
4060000,4060000,-0.00013168323,1.6918451e-05,-2.4015646e-06,4.5865504e-15,1.758778e-15,1.848364e-16
4068000,4068000,-0.00013168323,1.6918451e-05,-2.4015646e-06,-1.3008109e-15,-2.7879306e-15,-5.6360805e-16
4080000,4080000,-0.00013168323,1.6918451e-05,-2.4015646e-06,-1.1401074e-15,-1.0571637e-15,3.1364087e-16
4088000,4088000,-0.00013168323,1.6918451e-05,-2.4015646e-06,-2.5090577e-16,2.4304666e-15,3.9475696e-17
4100000,4100000,-0.00013168323,1.6918451e-05,-2.4015646e-06,-1.1786729e-15,2.1828922e-15,-6.467171e-18
4108000,4108000,-0.00013168323,1.6918451e-05,-2.4015646e-06,-2.396452e-15,-4.4487627e-15,7.292301e-17
4120000,4120000,-0.00013168323,1.6918451e-05,-2.4015646e-06,3.6811637e-15,2.4944705e-15,1.9540362e-16
4128000,4128000,-0.00013168323,1.6918451e-05,-2.4015646e-06,1.1826058e-15,-2.0589211e-16,-2.39363e-16
4136000,4136000,-0.00013168323,1.6918451e-05,-2.4015646e-06,-2.4575331e-15,-8.0694304e-16,9.951103e-17
4144000,4144000,-0.00013168323,1.6918451e-05,-2.4015646e-06,-1.5040349e-15,-7.8837846e-16,-4.2741283e-16
4160000,4160000,-0.00013168323,1.6918451e-05,-2.4015646e-06,-2.0248556e-15,2.1813968e-16,-2.4164796e-16
4168000,4168000,-8.1881975e-05,-1.2465951e-05,-2.2241293e-06,2.9083215e-15,-1.902065e-15,-3.0135892e-16
4180000,4180000,-8.1881975e-05,-1.2465951e-05,-2.2241293e-06,1.0285127e-15,2.6014038e-15,3.8590048e-16
4188000,4188000,-8.1881975e-05,-1.2465951e-05,-2.2241293e-06,1.3228606e-15,2.1953366e-15,-2.0515568e-16
4200000,4200000,-8.1881975e-05,-1.2465951e-05,-2.2241293e-06,2.3589688e-16,-1.4517382e-15,4.425864e-16
4208000,4208000,-8.1881975e-05,-1.2465951e-05,-2.2241293e-06,-1.0917865e-15,-1.2076003e-15,7.571893e-17
4220000,4220000,-8.1881975e-05,-1.2465951e-05,-2.2241293e-06,3.690788e-15,-1.9198343e-15,-3.9331252e-16
4224000,4224000,-8.1881975e-05,-1.2465951e-05,-2.2241293e-06,1.9559213e-15,1.6831476e-16,-1.341071e-16
4240000,4240000,-8.1881975e-05,-1.2465951e-05,-2.2241293e-06,-1.0870054e-15,5.2003733e-17,-3.580702e-17
4248000,4248000,-8.1881975e-05,-1.2465951e-05,-2.2241293e-06,4.2141398e-16,-3.543702e-15,-5.2490775e-16
4260000,4260000,-8.1881975e-05,-1.2465951e-05,-2.2241293e-06,7.1908714e-16,1.9549618e-15,4.2896252e-16
4268000,4268000,-8.1881975e-05,-1.2465951e-05,-2.2241293e-06,1.961795e-16,1.9866512e-15,-1.8556672e-16
4280000,4280000,-8.1881975e-05,-1.2465951e-05,-2.2241293e-06,-9.380157e-16,1.7322489e-15,-7.332242e-17
4288000,4288000,-0.00010293381,-5.513949e-05,-2.1386832e-06,1.7655102e-15,-2.8472087e-15,-2.4848815e-16
4300000,4300000,-0.00010293381,-5.513949e-05,-2.1386832e-06,-3.1622489e-15,-8.887972e-16,4.912521e-16
4308000,4308000,-0.00010293381,-5.513949e-05,-2.1386832e-06,-1.7786008e-15,5.4320895e-16,-1.2394632e-16
4320000,4320000,-0.00010293381,-5.513949e-05,-2.1386832e-06,1.916339e-15,-1.9807766e-15,-2.9822982e-16
4328000,4328000,-0.00010293381,-5.513949e-05,-2.1386832e-06,7.925267e-16,5.280958e-16,-5.718439e-19
4340000,4340000,-0.00010293381,-5.513949e-05,-2.1386832e-06,-1.157463e-15,-6.307033e-16,-2.010968e-16
4348000,4348000,-0.00010293381,-5.513949e-05,-2.1386832e-06,-7.59636e-16,7.290563e-16,-2.6724535e-16
4360000,4360000,-0.00010293381,-5.513949e-05,-2.1386832e-06,4.01411e-15,-1.5807714e-15,5.0685403e-16
4368000,4368000,-0.00010293381,-5.513949e-05,-2.1386832e-06,4.4525965e-16,-4.2260383e-17,1.3741765e-16
4380000,4380000,-0.00010293381,-5.513949e-05,-2.1386832e-06,-1.873222e-15,-3.1733242e-16,-2.4528608e-16
4388000,4388000,-0.00010293381,-5.513949e-05,-2.1386832e-06,-4.6844167e-16,2.2829814e-15,4.708079e-17
4400000,4400000,-0.00010293381,-5.513949e-05,-2.1386832e-06,5.7743125e-16,-1.616844e-15,1.5147281e-16
4408000,4408000,-6.457293e-05,-5.9873917e-05,-1.9969034e-06,-6.0301707e-15,-2.3990402e-15,-3.3405805e-17
4420000,4420000,-6.457293e-05,-5.9873917e-05,-1.9969034e-06,4.6457754e-15,3.4578998e-15,1.8490977e-16
4428000,4428000,-6.457293e-05,-5.9873917e-05,-1.9969034e-06,2.6884148e-15,-4.867663e-15,-3.174097e-16
4440000,4440000,-6.457293e-05,-5.9873917e-05,-1.9969034e-06,-9.157968e-16,5.019103e-15,1.2597896e-16
4448000,4448000,-6.457293e-05,-5.9873917e-05,-1.9969034e-06,7.471434e-15,2.45963e-15,2.133905e-16
4460000,4460000,-6.457293e-05,-5.9873917e-05,-1.9969034e-06,-6.3925424e-15,-2.4573002e-15,-7.3187855e-17
4468000,4468000,-6.457293e-05,-5.9873917e-05,-1.9969034e-06,-3.4590238e-15,1.7263277e-15,-3.8372376e-17
4480000,4480000,-6.457293e-05,-5.9873917e-05,-1.9969034e-06,1.9419357e-15,9.967462e-16,-2.923579e-17
4488000,4488000,-6.457293e-05,-5.9873917e-05,-1.9969034e-06,7.532147e-15,-9.341084e-16,1.7391022e-16
4500000,4500000,-6.457293e-05,-5.9873917e-05,-1.9969034e-06,-4.3876654e-15,-2.2570783e-15,-4.4292954e-17
4508000,4508000,-6.457293e-05,-5.9873917e-05,-1.9969034e-06,-1.9986797e-15,7.564542e-16,7.4351996e-17
4520000,4520000,-6.457293e-05,-5.9873917e-05,-1.9969034e-06,-9.846204e-16,-1.211975e-15,-5.5839435e-16
4528000,4528000,-6.457293e-05,-5.9873917e-05,-1.9969034e-06,-2.7834523e-15,-2.6333028e-15,-3.9835303e-16
4536000,4536000,-4.436574e-05,-7.541651e-05,-1.9956676e-06,7.4549233e-16,2.7156927e-15,1.8372337e-16
4544000,4544000,-4.436574e-05,-7.541651e-05,-1.9956676e-06,1.0105364e-15,4.7994846e-16,6.671738e-17
4560000,4560000,-4.436574e-05,-7.541651e-05,-1.9956676e-06,1.3254175e-15,-3.4257168e-15,1.5354517e-17
4568000,4568000,-4.436574e-05,-7.541651e-05,-1.9956676e-06,1.8852685e-15,2.0770623e-16,3.866257e-16
4580000,4580000,-4.436574e-05,-7.541651e-05,-1.9956676e-06,-3.059613e-16,4.2541012e-16,-2.0604605e-16
4588000,4588000,-4.436574e-05,-7.541651e-05,-1.9956676e-06,-2.3446067e-15,5.001179e-16,-1.7195151e-16
4600000,4600000,-4.436574e-05,-7.541651e-05,-1.9956676e-06,2.0514537e-15,-2.5289306e-15,-2.0071096e-16
4608000,4608000,-4.436574e-05,-7.541651e-05,-1.9956676e-06,6.1674184e-16,-1.3754779e-16,3.8835232e-16
4620000,4620000,-4.436574e-05,-7.541651e-05,-1.9956676e-06,-1.1018877e-15,1.0079391e-15,5.20778e-17
4628000,4628000,-4.436574e-05,-7.541651e-05,-1.9956676e-06,1.6503944e-15,3.4523902e-15,4.3458865e-17
4640000,4640000,-4.436574e-05,-7.541651e-05,-1.9956676e-06,4.2741604e-15,-1.9032007e-15,3.2201514e-16
4648000,4648000,-4.436574e-05,-7.541651e-05,-1.9956676e-06,2.0359117e-15,5.875483e-16,-1.847285e-16
4660000,4660000,2.8703196e-05,-9.303891e-05,-1.8778404e-06,-5.372613e-15,2.5148887e-16,-2.5128053e-16
4668000,4668000,2.8703196e-05,-9.303891e-05,-1.8778404e-06,-2.0440248e-15,1.9119523e-16,5.6901307e-16
4680000,4680000,2.8703196e-05,-9.303891e-05,-1.8778404e-06,2.21275e-15,-2.8956291e-15,-2.2183653e-16
4688000,4688000,2.8703196e-05,-9.303891e-05,-1.8778404e-06,2.7114463e-15,2.7659564e-16,-8.60281e-17
4700000,4700000,2.8703196e-05,-9.303891e-05,-1.8778404e-06,-1.6207582e-15,-1.3972495e-15,-1.371247e-16
4708000,4708000,2.8703196e-05,-9.303891e-05,-1.8778404e-06,-1.3282535e-15,6.222277e-16,2.162809e-16
4720000,4720000,2.8703196e-05,-9.303891e-05,-1.8778404e-06,2.885997e-15,2.4268794e-15,2.582435e-16
4728000,4728000,2.8703196e-05,-9.303891e-05,-1.8778404e-06,-6.6234004e-15,-1.0657587e-15,-2.7413472e-16
4740000,4740000,2.8703196e-05,-9.303891e-05,-1.8778404e-06,-2.1837123e-16,-1.2074549e-16,-4.64155e-16
4744000,4744000,2.8703196e-05,-9.303891e-05,-1.8778404e-06,2.2486285e-15,3.0709246e-16,-1.0363453e-16
4760000,4760000,2.8703196e-05,-9.303891e-05,-1.8778404e-06,4.1515364e-16,-1.0425496e-15,3.0221971e-16
4768000,4768000,2.8703196e-05,-9.303891e-05,-1.8778404e-06,-3.3529638e-15,-1.3353385e-15,2.4567322e-16
4780000,4780000,-2.3068117e-06,-8.9578454e-05,-1.7296819e-06,3.8155294e-15,9.043481e-16,-3.8297327e-16
4784000,4784000,-2.3068117e-06,-8.9578454e-05,-1.7296819e-06,2.680868e-15,9.08829e-16,-2.1143639e-16
4796000,4796000,-2.3068117e-06,-8.9578454e-05,-1.7296819e-06,-5.9583844e-16,-2.1626848e-15,1.2876935e-16
4804000,4804000,-2.3068117e-06,-8.9578454e-05,-1.7296819e-06,-4.8151142e-15,-4.400749e-16,-1.3882628e-16
4816000,4816000,-2.3068117e-06,-8.9578454e-05,-1.7296819e-06,1.9377355e-15,-2.8919553e-15,-1.7163135e-16
4824000,4824000,-2.3068117e-06,-8.9578454e-05,-1.7296819e-06,-5.5313226e-16,-7.6931153e-16,-1.199235e-16
4836000,4836000,-2.3068117e-06,-8.9578454e-05,-1.7296819e-06,1.1861272e-15,2.824222e-15,7.1614915e-16
4848000,4848000,-2.3068117e-06,-8.9578454e-05,-1.7296819e-06,-1.4272058e-15,-7.8967336e-16,-2.194383e-16
4856000,4856000,-2.3068117e-06,-8.9578454e-05,-1.7296819e-06,1.0329851e-15,1.3056064e-15,-5.5402133e-16
4864000,4864000,-2.3068117e-06,-8.9578454e-05,-1.7296819e-06,3.7425037e-15,-3.912425e-16,-2.0462152e-16
4876000,4876000,-2.3068117e-06,-8.9578454e-05,-1.7296819e-06,-4.8405506e-15,-2.1457293e-15,7.6983955e-16
4884000,4884000,-2.3068117e-06,-8.9578454e-05,-1.7296819e-06,-1.2458103e-15,-2.9688566e-15,2.1309703e-16
4900000,4900000,-2.3068117e-06,-8.9578454e-05,-1.7296819e-06,6.599597e-16,-5.046946e-15,-6.060257e-16
4904000,4904000,1.2554379e-05,-6.3073996e-05,-1.7711566e-06,-5.852173e-16,-3.4663748e-15,-2.969429e-16
4916000,4916000,1.2554379e-05,-6.3073996e-05,-1.7711566e-06,-1.2781336e-15,4.295543e-15,6.790416e-16
4928000,4928000,1.2554379e-05,-6.3073996e-05,-1.7711566e-06,7.3415e-16,3.4717458e-15,2.269007e-16
4940000,4940000,1.2554379e-05,-6.3073996e-05,-1.7711566e-06,7.994154e-17,-3.0102348e-15,2.5512063e-17
4948000,4948000,1.2554379e-05,-6.3073996e-05,-1.7711566e-06,3.1939107e-15,2.5557135e-15,6.9579114e-16
4960000,4960000,1.2554379e-05,-6.3073996e-05,-1.7711566e-06,-5.652071e-16,-1.0703254e-15,-7.8687783e-16
4968000,4968000,1.2554379e-05,-6.3073996e-05,-1.7711566e-06,-7.979666e-16,-3.9569216e-15,-2.2896298e-16
4980000,4980000,1.2554379e-05,-6.3073996e-05,-1.7711566e-06,-8.8552954e-16,1.9025986e-15,1.704295e-16
4984000,4984000,1.2554379e-05,-6.3073996e-05,-1.7711566e-06,5.961363e-16,5.803553e-15,-8.1536323e-16
5000000,5000000,1.2554379e-05,-6.3073996e-05,-1.7711566e-06,3.1963856e-15,-3.193468e-15,1.6604473e-16
5008000,5008000,1.2554379e-05,-6.3073996e-05,-1.7711566e-06,2.534094e-15,3.910476e-15,4.0570393e-16
5020000,5020000,1.2554379e-05,-6.3073996e-05,-1.7711566e-06,1.4954414e-15,-1.9547085e-16,3.7197883e-16
5028000,5028000,7.72799e-05,-0.00016261195,-1.570388e-06,3.8141538e-15,6.1695455e-16,-8.1347975e-16
5040000,5040000,7.72799e-05,-0.00016261195,-1.570388e-06,-1.3898667e-15,-2.8213907e-15,3.8573685e-16
5044000,5044000,7.72799e-05,-0.00016261195,-1.570388e-06,-3.4349717e-15,-3.576523e-15,5.315741e-16
5056000,5056000,7.72799e-05,-0.00016261195,-1.570388e-06,2.6549053e-15,-3.2507534e-16,-8.1022243e-16
5064000,5064000,7.72799e-05,-0.00016261195,-1.570388e-06,2.3844738e-15,2.0173017e-15,-6.160551e-16
5080000,5080000,7.72799e-05,-0.00016261195,-1.570388e-06,-1.4038089e-17,-1.7332355e-15,7.56179e-16
5088000,5088000,7.72799e-05,-0.00016261195,-1.570388e-06,1.1447335e-15,-1.7127908e-15,7.7599885e-17
5096000,5096000,7.72799e-05,-0.00016261195,-1.570388e-06,-3.8848882e-15,3.8188696e-15,6.558699e-16
5104000,5104000,7.72799e-05,-0.00016261195,-1.570388e-06,-1.1280444e-15,-7.0644496e-16,7.199565e-17
5116000,5116000,7.72799e-05,-0.00016261195,-1.570388e-06,-8.0152335e-16,-1.4216675e-15,-1.4909485e-16
5124000,5124000,7.72799e-05,-0.00016261195,-1.570388e-06,-1.1366935e-15,-1.9821808e-15,2.54825e-16
5136000,5136000,7.72799e-05,-0.00016261195,-1.570388e-06,4.958063e-15,-7.3470616e-16,-3.0867465e-18
5148000,5148000,7.72799e-05,-0.00016261195,-1.570388e-06,3.3139084e-16,-6.440874e-16,-2.0736866e-16
5160000,5160000,2.3427408e-05,-0.000112679794,-1.6025576e-06,1.0607597e-15,2.9095937e-15,6.1848345e-16
5168000,5168000,2.3427408e-05,-0.000112679794,-1.6025576e-06,-2.6186856e-15,-1.929116e-19,-8.5613326e-18
5180000,5180000,2.3427408e-05,-0.000112679794,-1.6025576e-06,5.666438e-16,-3.8748412e-16,4.118381e-16
5188000,5188000,2.3427408e-05,-0.000112679794,-1.6025576e-06,-2.6914435e-16,3.625451e-15,-1.8690768e-16
5200000,5200000,2.3427408e-05,-0.000112679794,-1.6025576e-06,-8.518533e-16,-3.5196705e-15,4.0277682e-16
5208000,5208000,2.3427408e-05,-0.000112679794,-1.6025576e-06,-7.967753e-17,2.1172808e-15,2.9455849e-16
5220000,5220000,2.3427408e-05,-0.000112679794,-1.6025576e-06,1.5570249e-15,-4.528788e-17,-3.372414e-16
5228000,5228000,2.3427408e-05,-0.000112679794,-1.6025576e-06,-2.9958082e-15,-4.620651e-15,-8.690698e-17
5240000,5240000,2.3427408e-05,-0.000112679794,-1.6025576e-06,-4.3176525e-17,1.6973252e-15,7.618988e-16
5248000,5248000,2.3427408e-05,-0.000112679794,-1.6025576e-06,-1.8112546e-15,2.2843782e-15,3.7720992e-16
5260000,5260000,2.3427408e-05,-0.000112679794,-1.6025576e-06,2.4514417e-15,-1.2799426e-15,-8.154006e-16
5268000,5268000,2.3427408e-05,-0.000112679794,-1.6025576e-06,-1.65096e-15,-1.5066487e-15,-2.9125376e-16
5280000,5280000,2.3427408e-05,-0.000112679794,-1.6025576e-06,1.7441086e-16,1.6079438e-16,-5.2853423e-17
5288000,5288000,2.634087e-05,-0.00016352771,-1.4606534e-06,-1.6314663e-15,-2.2340545e-15,-4.726902e-16
5300000,5300000,2.634087e-05,-0.00016352771,-1.4606534e-06,1.7692114e-15,5.0207035e-15,2.8841993e-16
5308000,5308000,2.634087e-05,-0.00016352771,-1.4606534e-06,-6.039086e-16,-1.182132e-16,6.426248e-16
5320000,5320000,2.634087e-05,-0.00016352771,-1.4606534e-06,-7.6446486e-16,1.1327431e-15,-2.5384243e-16
5328000,5328000,2.634087e-05,-0.00016352771,-1.4606534e-06,-5.4772353e-16,3.877598e-15,-1.8042601e-16
5340000,5340000,2.634087e-05,-0.00016352771,-1.4606534e-06,-2.1924436e-15,1.6941446e-15,-4.2147536e-18
5348000,5348000,2.634087e-05,-0.00016352771,-1.4606534e-06,2.3640393e-16,1.9967478e-15,1.0678768e-15
5360000,5360000,2.634087e-05,-0.00016352771,-1.4606534e-06,-1.4112877e-15,-3.5563652e-15,2.0287094e-16
5368000,5368000,2.634087e-05,-0.00016352771,-1.4606534e-06,-1.6110829e-15,-2.6281501e-15,-3.427974e-16
5380000,5380000,2.634087e-05,-0.00016352771,-1.4606534e-06,-2.6238243e-15,2.3742833e-15,-5.71095e-16
5388000,5388000,2.634087e-05,-0.00016352771,-1.4606534e-06,1.2296216e-15,8.5083867e-16,-9.35467e-18
5400000,5400000,2.634087e-05,-0.00016352771,-1.4606534e-06,1.030052e-15,1.2337021e-15,7.48942e-16
5408000,5408000,7.989194e-05,-0.00017966237,-1.360286e-06,3.4632854e-15,1.2172078e-17,-1.4505447e-16
5420000,5420000,7.989194e-05,-0.00017966237,-1.360286e-06,-1.6726054e-15,-3.5312295e-15,-8.241937e-16
5428000,5428000,7.989194e-05,-0.00017966237,-1.360286e-06,4.5232305e-15,5.13901e-15,9.846977e-16
5440000,5440000,7.989194e-05,-0.00017966237,-1.360286e-06,-3.594431e-15,-1.6980705e-15,-2.5863537e-16
5448000,5448000,7.989194e-05,-0.00017966237,-1.360286e-06,4.7743213e-16,1.3138182e-15,-7.6155954e-16
5460000,5460000,7.989194e-05,-0.00017966237,-1.360286e-06,1.2294691e-15,-1.1146769e-15,8.284783e-18
5468000,5468000,7.989194e-05,-0.00017966237,-1.360286e-06,-5.4320117e-16,-1.397757e-15,1.2902267e-16
5480000,5480000,7.989194e-05,-0.00017966237,-1.360286e-06,1.3246384e-15,-7.0237327e-16,3.484472e-16
5488000,5488000,7.989194e-05,-0.00017966237,-1.360286e-06,-1.5152301e-15,-5.639805e-17,9.037352e-17
5500000,5500000,7.989194e-05,-0.00017966237,-1.360286e-06,-5.7512044e-16,1.1163749e-15,6.638586e-16
5508000,5508000,7.989194e-05,-0.00017966237,-1.360286e-06,-1.2450652e-15,1.6090937e-15,-4.8879566e-16
5520000,5520000,7.989194e-05,-0.00017966237,-1.360286e-06,-4.4276504e-15,-1.477714e-15,-4.859749e-16
5528000,5528000,7.989194e-05,-0.00017966237,-1.360286e-06,-3.1890327e-15,-2.5485928e-15,1.3276332e-15
5540000,5540000,0.00013443604,-0.0001863484,-1.3563707e-06,4.928057e-15,1.6214305e-15,-4.982821e-16
5548000,5548000,0.00013443604,-0.0001863484,-1.3563707e-06,8.887133e-16,-1.3362009e-15,-4.9663617e-16
5560000,5560000,0.00013443604,-0.0001863484,-1.3563707e-06,-1.3143088e-15,1.9535483e-15,4.8687925e-16
5568000,5568000,0.00013443604,-0.0001863484,-1.3563707e-06,4.966208e-16,6.1268434e-16,-1.2229254e-16
5580000,5580000,0.00013443604,-0.0001863484,-1.3563707e-06,1.4309224e-15,-2.1911675e-15,3.877554e-17
5588000,5588000,0.00013443604,-0.0001863484,-1.3563707e-06,1.6335549e-15,5.8832494e-15,7.2213085e-16
5600000,5600000,0.00013443604,-0.0001863484,-1.3563707e-06,2.3295854e-15,3.213884e-16,6.781537e-17
5608000,5608000,0.00013443604,-0.0001863484,-1.3563707e-06,-2.1815854e-15,-2.6179806e-15,-5.43968e-16
5620000,5620000,0.00013443604,-0.0001863484,-1.3563707e-06,-5.423583e-16,-6.745491e-16,-7.6413944e-16
5628000,5628000,0.00013443604,-0.0001863484,-1.3563707e-06,3.191114e-16,3.2875263e-15,9.300935e-16
5640000,5640000,0.00013443604,-0.0001863484,-1.3563707e-06,-2.2601128e-15,-4.8360457e-16,1.670099e-16
5648000,5648000,0.00013443604,-0.0001863484,-1.3563707e-06,1.1355593e-15,4.3499054e-16,-1.7036343e-16
5660000,5660000,0.0001501027,-0.00021473932,-1.2599158e-06,-3.591884e-15,-3.2750974e-15,-1.7768252e-16
5668000,5668000,0.0001501027,-0.00021473932,-1.2599158e-06,-2.7039456e-15,1.5461982e-16,3.98726e-16
5680000,5680000,0.0001501027,-0.00021473932,-1.2599158e-06,4.3695396e-16,1.2333682e-15,-5.103848e-16
5688000,5688000,0.0001501027,-0.00021473932,-1.2599158e-06,2.017309e-15,9.622853e-16,2.21577e-16
5700000,5700000,0.0001501027,-0.00021473932,-1.2599158e-06,-1.498371e-15,3.814127e-15,7.8979403e-17
5708000,5708000,0.0001501027,-0.00021473932,-1.2599158e-06,1.5056746e-15,-3.313799e-15,-1.0091295e-16
5720000,5720000,0.0001501027,-0.00021473932,-1.2599158e-06,-4.673966e-16,-2.1672205e-16,-6.547733e-16
5728000,5728000,0.0001501027,-0.00021473932,-1.2599158e-06,2.3912672e-16,-9.135578e-16,-2.2912384e-16
5740000,5740000,0.0001501027,-0.00021473932,-1.2599158e-06,3.713557e-15,-2.3978363e-15,-4.3333374e-16
5748000,5748000,0.0001501027,-0.00021473932,-1.2599158e-06,-3.6995947e-15,3.5398943e-15,1.5550024e-15
5760000,5760000,0.0001501027,-0.00021473932,-1.2599158e-06,1.8742982e-15,-8.4535286e-16,-4.585831e-16
5768000,5768000,0.0001501027,-0.00021473932,-1.2599158e-06,2.7463743e-15,-4.0647528e-16,3.6347886e-16
5780000,5780000,0.00014427012,-0.00015476573,-1.2110986e-06,-3.235604e-15,-3.0044063e-16,-3.5943128e-16
5788000,5788000,0.00014427012,-0.00015476573,-1.2110986e-06,7.713527e-17,1.2465133e-15,9.292036e-17
5800000,5800000,0.00014427012,-0.00015476573,-1.2110986e-06,-9.946549e-17,-2.5165362e-15,3.8984384e-17
5808000,5808000,0.00014427012,-0.00015476573,-1.2110986e-06,-5.122862e-15,3.6909387e-16,-5.360363e-16
5820000,5820000,0.00014427012,-0.00015476573,-1.2110986e-06,1.767021e-15,1.7933458e-15,1.1664929e-15
5828000,5828000,0.00014427012,-0.00015476573,-1.2110986e-06,-1.26798715e-17,-9.07113e-16,-2.9306369e-16
5840000,5840000,0.00014427012,-0.00015476573,-1.2110986e-06,1.389555e-15,3.0973964e-15,1.1828814e-15
5848000,5848000,0.00014427012,-0.00015476573,-1.2110986e-06,-5.329145e-16,-8.1948313e-17,-2.5983996e-16
5860000,5860000,0.00014427012,-0.00015476573,-1.2110986e-06,3.816881e-15,-1.7789712e-15,-4.3265434e-16
5868000,5868000,0.00014427012,-0.00015476573,-1.2110986e-06,-2.246982e-15,1.4209953e-16,-3.848711e-16
5880000,5880000,0.00014427012,-0.00015476573,-1.2110986e-06,-6.275374e-16,5.3494927e-16,1.5188301e-16
5888000,5888000,0.00014427012,-0.00015476573,-1.2110986e-06,3.1062427e-16,5.439386e-16,-1.4018828e-16
5900000,5900000,0.00014427012,-0.00015476573,-1.2110986e-06,-2.5433723e-15,2.6874003e-15,-3.807762e-16
5908000,5908000,0.00016668132,-8.502825e-05,-1.2060335e-06,3.678014e-16,-1.4228862e-15,1.3179319e-16
5916000,5916000,0.00016668132,-8.502825e-05,-1.2060335e-06,3.4886636e-15,-1.4809846e-15,3.773315e-16
5928000,5928000,0.00016668132,-8.502825e-05,-1.2060335e-06,9.843029e-16,-4.162408e-15,1.6555345e-17
5940000,5940000,0.00016668132,-8.502825e-05,-1.2060335e-06,-1.4045605e-15,4.098701e-15,-4.9362677e-16
5944000,5944000,0.00016668132,-8.502825e-05,-1.2060335e-06,-2.848467e-16,2.1655302e-15,-6.1179774e-17
5956000,5956000,0.00016668132,-8.502825e-05,-1.2060335e-06,2.2056981e-16,-8.6595355e-17,-7.135328e-18
5964000,5964000,0.00016668132,-8.502825e-05,-1.2060335e-06,2.5445276e-15,3.24461e-16,-1.6800007e-17
5980000,5980000,0.00016668132,-8.502825e-05,-1.2060335e-06,-5.5888953e-15,-2.7584951e-16,5.021422e-16
5988000,5988000,0.00016668132,-8.502825e-05,-1.2060335e-06,-4.001054e-15,2.4844397e-15,-5.1711594e-16
6000000,6000000,0.00016668132,-8.502825e-05,-1.2060335e-06,-1.600357e-15,3.3447023e-16,1.4948136e-16
6008000,6008000,0.00016668132,-8.502825e-05,-1.2060335e-06,2.0213692e-15,-1.7438153e-15,7.855233e-16
6020000,6020000,0.00016668132,-8.502825e-05,-1.2060335e-06,4.950196e-16,2.1185665e-16,8.9336836e-17
6028000,6028000,0.00019444538,-7.977945e-05,-1.1279402e-06,-4.5095268e-15,2.293662e-15,-9.9373713e-17
6036000,6036000,0.00019444538,-7.977945e-05,-1.1279402e-06,3.4775257e-15,-2.9998565e-15,-4.0347832e-17
6048000,6048000,0.00019444538,-7.977945e-05,-1.1279402e-06,1.7273907e-15,-4.030243e-15,-9.05309e-16
6056000,6056000,0.00019444538,-7.977945e-05,-1.1279402e-06,-3.6081215e-15,1.5352328e-15,4.8965746e-16
6064000,6064000,0.00019444538,-7.977945e-05,-1.1279402e-06,-6.957459e-16,2.747544e-15,5.3265693e-16
6076000,6076000,0.00019444538,-7.977945e-05,-1.1279402e-06,-6.101897e-16,-3.3677405e-17,6.372956e-16
6084000,6084000,0.00019444538,-7.977945e-05,-1.1279402e-06,2.00857e-15,-8.1070667e-16,-1.2504315e-15
6096000,6096000,0.00019444538,-7.977945e-05,-1.1279402e-06,1.7194005e-15,1.061097e-15,5.873206e-16
6104000,6104000,0.00019444538,-7.977945e-05,-1.1279402e-06,-3.651361e-15,1.173423e-15,5.377337e-16
6120000,6120000,0.00019444538,-7.977945e-05,-1.1279402e-06,5.4070253e-16,-3.067143e-15,-2.8765435e-16
6128000,6128000,0.00019444538,-7.977945e-05,-1.1279402e-06,-4.8864988e-15,4.5741113e-16,5.855934e-16
6140000,6140000,0.00019444538,-7.977945e-05,-1.1279402e-06,3.3710435e-15,3.0683563e-15,-1.378283e-16
6148000,6148000,0.00019444538,-7.977945e-05,-1.1279402e-06,2.8897742e-15,-1.0317736e-15,8.5278155e-16
6160000,6160000,0.00019444538,-7.977945e-05,-1.1279402e-06,2.2493913e-15,2.3596026e-15,-4.3801413e-16
6168000,6168000,0.00015982038,-0.00014015424,-1.1034083e-06,-6.195707e-17,-1.3553119e-16,-1.1369153e-15
6180000,6180000,0.00015982038,-0.00014015424,-1.1034083e-06,-2.60509e-15,-4.0363042e-17,1.0164266e-15
6188000,6188000,0.00015982038,-0.00014015424,-1.1034083e-06,-1.4461244e-15,1.1203904e-15,5.1263075e-16
6200000,6200000,0.00015982038,-0.00014015424,-1.1034083e-06,2.8070043e-15,-2.1858526e-15,-2.3296702e-16
6208000,6208000,0.00015982038,-0.00014015424,-1.1034083e-06,-1.0235321e-15,2.308023e-15,1.4651441e-16
6220000,6220000,0.00015982038,-0.00014015424,-1.1034083e-06,2.4733315e-15,-1.1619892e-15,-1.7009065e-16
6228000,6228000,0.00015982038,-0.00014015424,-1.1034083e-06,2.7532001e-15,-3.6359045e-16,-4.0172475e-16
6240000,6240000,0.00015982038,-0.00014015424,-1.1034083e-06,-2.468331e-15,-8.6145315e-17,1.2562093e-16
